station,province,lat,lon,elevator_rows,n_owners,n_years,first_year,last_year,top_owner,top_rail,max_capacity_bushels,coord_source
Fort William,ONTARIO,48.35434,-89.26268,182,51,20,1911,1940,Ogilvie Flour Mills Co Ltd,Canadian Pacific,7500000,cgn_direct
Gravelbourg,SASKATCHEWAN,49.8729,-106.55359,181,48,21,1913,1943,Alberta Pacific Grain Co Ltd,Canadian National Rys,125000,cgn_direct
Cabri,SASKATCHEWAN,50.62188,-108.46331,180,32,22,1912,1943,Ogilvie Flour Mills Co Ltd,Canadian Pacific,52000,cgn_direct
Barons,ALBERTA,49.99667,-113.08306,176,40,23,1911,1943,N Bawlf Grain Co Ltd,Canadian Pacific,105000,cgn_direct
Indian Head,SASKATCHEWAN,50.53374,-103.66755,174,33,23,1911,1943,Ogilvie Flour Mills Co Ltd,Canadian Pacific,70000,cgn_direct
Port Arthur,ONTARIO,48.4259,-89.2126,168,61,21,1911,1943,Eastern Terminal Elevator Co Ltd,Canadian Pacific,9000000,manual_historical
Prelate,SASKATCHEWAN,50.85242,-109.40392,165,39,21,1913,1943,Alberta Pacific Grain Co Ltd,Canadian Pacific,80000,cgn_direct
Vulcan,ALBERTA,50.40417,-113.26056,148,29,21,1912,1943,United Grain Growers Ltd,Canadian Pacific,137000,cgn_direct
Herbert,SASKATCHEWAN,50.42648,-107.22499,147,23,23,1911,1943,Lake Of The Woods Milling Co Ltd,Canadian Pacific,35000,cgn_direct
Milestone,SASKATCHEWAN,49.99326,-104.5177,147,31,23,1911,1943,Ogilvie Flour Mills Co Ltd,Canadian Pacific,45000,cgn_direct
Gull Lake,SASKATCHEWAN,50.09691,-108.48475,146,29,22,1911,1943,Ogilvie Flour Mills Co Ltd,Canadian Pacific,70000,cgn_direct
Claresholm,ALBERTA,50.01972,-113.58278,146,30,23,1911,1943,Alberta Pacific Grain Co Ltd,Canadian Pacific,84000,cgn_direct
Shaunavon,SASKATCHEWAN,49.65035,-108.41599,146,28,20,1913,1943,Pioneer Grain Co Ltd,Canadian Pacific,60000,cgn_direct
Webb,SASKATCHEWAN,50.18259,-108.20236,142,32,23,1911,1943,Ogilvie Flour Mills Co Ltd,Canadian Pacific,40000,cgn_direct
Yorkton,SASKATCHEWAN,51.21377,-102.46288,142,38,22,1911,1943,N Bawlf Grain Co Ltd,Canadian Pacific,45000,cgn_direct
Carmangay,ALBERTA,50.12944,-113.11139,141,35,23,1911,1943,Alberta Pacific Grain Co Ltd,Canadian Pacific,84000,cgn_direct
Nanton,ALBERTA,50.34694,-113.77333,140,28,23,1911,1943,Alberta Pacific Grain Co Ltd,Canadian Pacific,103000,cgn_direct
Hanley,SASKATCHEWAN,51.62709,-106.44101,140,23,21,1911,1943,Mutual Grain Co Ltd,Canadian National Rys,40000,cgn_direct
Grenfell,SASKATCHEWAN,50.41067,-102.93222,139,31,22,1911,1943,Ogilvie Flour Mills Co Ltd,Canadian Pacific,50000,cgn_direct
High River,ALBERTA,50.57972,-113.87417,138,27,23,1911,1943,Alberta Pacific Grain Co Ltd,Canadian Pacific,145000,cgn_direct
Mundare,ALBERTA,53.59389,-112.34167,138,23,23,1911,1943,Alberta Pacific Grain Co Ltd,Canadian National Rys,80000,cgn_direct
Rouleau,SASKATCHEWAN,50.19034,-104.90741,137,25,23,1911,1943,Lake Of The Woods Milling Co Ltd,Canadian Pacific,105000,cgn_direct
Calgary,ALBERTA,51.04583,-114.0575,137,54,22,1911,1943,Robin Hood Mills Ltd,Canadian Pacific,2600000,cgn_direct
Aneroid,SASKATCHEWAN,49.71641,-107.3001,136,29,20,1913,1943,N M Paterson & Co Ltd,Canadian Pacific,35000,cgn_direct
Foam Lake,SASKATCHEWAN,51.64108,-103.53955,135,19,23,1911,1943,Pioneer Grain Co Ltd,Canadian Pacific,35000,cgn_direct
Wilcox,SASKATCHEWAN,50.09703,-104.72506,135,35,23,1911,1943,N M Paterson & Co Ltd,Canadian Pacific,90000,cgn_direct
Granum,ALBERTA,49.87111,-113.50833,135,23,23,1911,1943,Pioneer Grain Co Ltd,Canadian Pacific,84000,cgn_direct
Morse,SASKATCHEWAN,50.41504,-107.03874,133,33,23,1911,1943,Alberta Pacific Grain Co Ltd,Canadian Pacific,35000,cgn_direct
Swift Current,SASKATCHEWAN,50.28816,-107.79389,133,36,22,1911,1943,Lake Of The Woods Milling Co Ltd,Canadian Pacific,45000,cgn_direct
Lang,SASKATCHEWAN,49.91959,-104.37235,132,19,23,1911,1943,Ogilvie Flour Mills Co Ltd,Canadian Pacific,115000,cgn_direct
Provost,ALBERTA,52.35333,-110.26472,132,29,23,1911,1943,United Grain Growers Ltd,Canadian Pacific,65000,cgn_direct
Wetaskiwin,ALBERTA,52.96917,-113.37694,132,32,23,1911,1943,Alberta Pacific Grain Co Ltd,Canadian Pacific,114000,cgn_direct
Winnipeg,MANITOBA,49.88444,-97.14639,130,49,22,1911,1943,Ogilvie Flour Mills Co Ltd,Canadian Pacific,1192000,cgn_direct
Weyburn,SASKATCHEWAN,49.66098,-103.85263,130,34,22,1911,1943,Lake Of The Woods Milling Co Ltd,Canadian Pacific,155000,cgn_direct
Cupar,SASKATCHEWAN,50.94666,-104.21096,129,28,22,1911,1943,Pioneer Grain Co Ltd,Canadian Pacific,70000,cgn_direct
Canora,SASKATCHEWAN,51.63638,-102.43101,129,28,23,1911,1943,Northern Elevator Co Ltd,Canadian National Rys,38000,cgn_direct
Champion,ALBERTA,50.23972,-113.14806,127,26,23,1911,1943,Alberta Pacific Grain Co Ltd,Canadian Pacific,84000,cgn_direct
Aberdeen,SASKATCHEWAN,52.32554,-106.29151,127,26,22,1911,1943,Northern Elevator Co Ltd,Canadian National Rys,50000,cgn_direct
Simpson,SASKATCHEWAN,51.4526,-105.44503,126,27,23,1911,1943,Alberta Pacific Grain Co Ltd,Canadian Pacific,35000,cgn_direct
Borden,SASKATCHEWAN,52.40575,-107.24111,126,25,23,1911,1943,National Elevator Co Ltd,Canadian National Rys,61000,cgn_direct
Davidson,SASKATCHEWAN,51.25916,-105.98593,126,26,22,1912,1943,British America Elevator Co Ltd,Canadian National Rys,67000,cgn_direct
Carstairs,ALBERTA,51.56556,-114.09944,125,33,23,1911,1943,Alberta Pacific Grain Co Ltd,Canadian Pacific,84000,cgn_direct
Luseland,SASKATCHEWAN,52.07963,-109.38989,122,20,23,1911,1943,North Star Grain Co Ltd,Canadian Pacific,55000,cgn_direct
Killam,ALBERTA,52.78972,-111.85528,122,30,23,1911,1943,Alberta Pacific Grain Co Ltd,Canadian Pacific,101000,cgn_direct
Dauphin,MANITOBA,51.14944,-100.04944,121,21,22,1911,1943,United Grain Growers Ltd,Canadian National Rys,60500,cgn_direct
Blackie,ALBERTA,50.60444,-113.62278,121,20,22,1912,1943,Alberta Pacific Grain Co Ltd,Canadian Pacific,85000,cgn_direct
Limerick,SASKATCHEWAN,49.65302,-106.2654,121,25,20,1913,1943,Alberta Pacific Grain Co Ltd,Canadian Pacific,60000,cgn_direct
Abernethy,SASKATCHEWAN,50.74453,-103.41816,120,25,23,1911,1943,North Star Grain Co Ltd,Canadian Pacific,40000,cgn_direct
Fillmore,SASKATCHEWAN,49.87947,-103.43388,120,20,23,1911,1943,Maple Leaf Milling Co Ltd,Canadian Pacific,42000,cgn_direct
Lemberg,SASKATCHEWAN,50.73157,-103.20334,119,29,23,1911,1943,Pioneer Grain Co Ltd,Canadian Pacific,75000,cgn_direct
Kinistino,SASKATCHEWAN,52.95081,-105.02997,119,20,22,1911,1943,Searle Grain Co Ltd,Canadian National Rys,70000,cgn_direct
Vegreville,ALBERTA,53.49556,-112.05167,119,30,23,1911,1943,British America Elevator Co Ltd,Canadian National Rys,110000,cgn_direct
Ponteix,SASKATCHEWAN,49.74473,-107.48724,119,15,19,1915,1943,Pioneer Grain Co Ltd,Canadian Pacific,80000,cgn_direct
Dinsmore,SASKATCHEWAN,51.3309,-107.44534,119,24,21,1913,1943,Saskatchewan Elevator Co Ltd,Canadian National Rys,80000,cgn_direct
Sceptre,SASKATCHEWAN,50.86499,-109.26981,118,21,21,1913,1943,Alberta Pacific Grain Co Ltd,Canadian Pacific,70000,cgn_direct
Woodrow,SASKATCHEWAN,49.69398,-106.72324,118,19,21,1913,1943,Ogilvie Flour Mills Co Ltd,Canadian Pacific,35000,cgn_direct
Star City,SASKATCHEWAN,52.86181,-104.33172,117,23,23,1911,1943,National Elevator Co Ltd,Canadian National Rys,75000,cgn_direct
Rhein,SASKATCHEWAN,51.35288,-102.19159,117,25,21,1912,1943,N Bawlf Grain Co Ltd,Canadian National Rys,60000,cgn_direct
Glenside,SASKATCHEWAN,51.45343,-106.80524,116,21,23,1911,1943,Pioneer Grain Co Ltd,Canadian Pacific,210000,cgn_direct
Loreburn,SASKATCHEWAN,51.23082,-106.59959,116,19,22,1911,1943,Central Grain Co Ltd,Canadian Pacific,45000,cgn_direct
Sintaluta,SASKATCHEWAN,50.4769,-103.44967,116,25,23,1911,1943,Ogilvie Flour Mills Co Ltd,Canadian Pacific,55000,cgn_direct
Tompkins,SASKATCHEWAN,50.06246,-108.79218,116,28,22,1911,1943,Ogilvie Flour Mills Co Ltd,Canadian Pacific,45000,cgn_direct
Blaine Lake,SASKATCHEWAN,52.8283,-106.88143,116,21,22,1912,1943,National Elevator Co Ltd,Canadian National Rys,62000,cgn_direct
Delia,ALBERTA,51.63056,-112.37389,116,27,18,1915,1943,United Grain Growers Ltd,Canadian National Rys,136000,cgn_direct
Holland,MANITOBA,49.5975,-98.87944,115,21,23,1911,1943,Ogilvie Flour Mills Co Ltd,Canadian Pacific,50000,cgn_direct
Hayter,ALBERTA,52.35639,-110.10778,115,18,23,1911,1943,Pioneer Grain Co Ltd,Canadian Pacific,80000,cgn_direct
Lougheed,ALBERTA,52.74444,-111.54278,115,19,23,1911,1943,Alberta Pacific Grain Co Ltd,Canadian Pacific,106000,cgn_direct
Kamsack,MANITOBA,51.56119,-101.89644,115,28,22,1911,1943,Pioneer Grain Co Ltd,Canadian National Rys,65000,cgn_direct
Vanguard,SASKATCHEWAN,49.90949,-107.30172,115,36,22,1912,1943,State Elevator Co Ltd,Canadian Pacific,35000,cgn_direct
Hazenmore,SASKATCHEWAN,49.68729,-107.13915,115,16,21,1913,1943,Pioneer Grain Co Ltd,Canadian Pacific,35000,cgn_direct
Magrath,ALBERTA,49.40778,-112.86667,114,23,22,1911,1943,Alberta Pacific Grain Co Ltd,Canadian Pacific,81800,cgn_direct
Delisle,SASKATCHEWAN,51.92169,-107.135,114,19,23,1911,1943,Quaker Oats Co,Canadian National Rys,50000,cgn_direct
Duval,SASKATCHEWAN,51.15724,-104.99049,113,16,22,1911,1943,North Star Grain Co Ltd,Canadian Pacific,40000,cgn_direct
Southey,SASKATCHEWAN,50.94287,-104.49961,113,17,22,1911,1943,Pioneer Grain Co Ltd,Canadian Pacific,70000,cgn_direct
Wolseley,SASKATCHEWAN,50.42218,-103.27212,113,32,22,1911,1943,Ogilvie Flour Mills Co Ltd,Canadian Pacific,45000,cgn_direct
Vancouver,BRITISH COLUMBIA,49.26111,-123.11389,113,48,20,1911,1941,Canadian Pacific Railway Co,Canadian Pacific,5150000,cgn_direct
Rosthern,SASKATCHEWAN,52.66263,-106.33382,113,26,21,1912,1943,Lake Of The Woods Milling Co Ltd,Canadian National Rys,40000,cgn_direct
Kincaid,SASKATCHEWAN,49.66977,-107.00641,113,30,19,1913,1943,Pioneer Grain Co Ltd,Canadian Pacific,35000,cgn_direct
Imperial,SASKATCHEWAN,51.34791,-105.44082,112,21,23,1911,1943,State Elevator Co Ltd,Canadian Pacific,35000,cgn_direct
Sovereign,SASKATCHEWAN,51.5116,-107.7212,112,21,23,1911,1943,Haddington Farms Ltd,Canadian Pacific,67000,cgn_direct
Tessier,SASKATCHEWAN,51.80707,-107.42738,112,27,22,1911,1943,British America Elevator Co Ltd,Canadian National Rys,60000,cgn_direct
Assiniboia,SASKATCHEWAN,49.62911,-105.98863,112,35,20,1913,1943,North Star Grain Co Ltd,Canadian Pacific,35000,cgn_direct
Girvin,SASKATCHEWAN,51.15003,-105.91726,111,20,23,1911,1943,British America Elevator Co Ltd,Canadian National Rys,50000,cgn_direct
Maple Creek,SASKATCHEWAN,49.90212,-109.48613,110,23,23,1911,1943,Ogilvie Flour Mills Co Ltd,Canadian Pacific,50000,cgn_direct
Buchanan,SASKATCHEWAN,51.70688,-102.7559,110,28,23,1911,1943,Alberta Pacific Grain Co Ltd,Canadian National Rys,90000,cgn_direct
Newdale,MANITOBA,50.35167,-100.20333,109,19,22,1911,1943,Ogilvie Flour Mills Co Ltd,Canadian Pacific,54000,cgn_direct
Estevan,SASKATCHEWAN,49.13928,-102.98598,109,38,22,1911,1943,Ogilvie Flour Mills Co Ltd,Canadian Pacific,40000,cgn_direct
Yellow Grass,SASKATCHEWAN,49.80655,-104.16346,109,21,23,1911,1943,Western Elevator Co Ltd,Canadian Pacific,64000,cgn_direct
Edmonton,ALBERTA,53.53444,-113.49028,109,32,23,1911,1943,Campbell & Ottewell,Canadian Northern Ry Co,2500000,cgn_direct
Allan,SASKATCHEWAN,51.89588,-106.06037,109,22,23,1911,1943,Western Canada Flour Mills Co Ltd,Canadian National Rys,45000,cgn_direct
Three Hills,ALBERTA,51.70306,-113.26861,109,22,21,1912,1943,Alberta Pacific Grain Co Ltd,Canadian National Rys,100000,cgn_direct
Abbey,SASKATCHEWAN,50.73664,-108.75758,109,17,21,1913,1943,Ogilvie Flour Mills Co Ltd,Canadian Pacific,45000,cgn_direct
Wiseton,SASKATCHEWAN,51.31286,-107.6491,109,24,20,1914,1943,State Elevator Co Ltd,Canadian National Rys,70000,cgn_direct
Gainsboro,MANITOBA,49.17679,-101.44834,108,28,23,1911,1943,N M Paterson & Co Ltd,Canadian Pacific,35000,cgn_direct
Stoughton,SASKATCHEWAN,49.67731,-103.02813,108,19,23,1911,1943,Ogilvie Flour Mills Co Ltd,Canadian Pacific,35000,cgn_direct
Didsbury,ALBERTA,51.65944,-114.1375,108,28,23,1911,1943,Alberta Pacific Grain Co Ltd,Canadian Pacific,95000,cgn_direct
Sedgewick,ALBERTA,52.77472,-111.69278,108,26,23,1911,1943,Alberta Pacific Grain Co Ltd,Canadian Pacific,63000,cgn_direct
Zealandia,SASKATCHEWAN,51.61642,-107.74403,108,22,22,1911,1943,British America Elevator Co Ltd,Canadian National Rys,50000,cgn_direct
Mazenod,SASKATCHEWAN,49.85983,-106.21303,108,20,20,1913,1943,Alberta Pacific Grain Co Ltd,Canadian National Rys,62000,cgn_direct
Arcola,SASKATCHEWAN,49.63545,-102.49192,107,35,22,1911,1943,Pioneer Grain Co Ltd,Canadian Pacific,35000,cgn_direct
Govan,SASKATCHEWAN,51.3108,-104.99522,107,17,23,1911,1943,Ogilvie Flour Mills Co Ltd,Canadian Pacific,44000,cgn_direct
Markinch,SASKATCHEWAN,50.93918,-104.36235,107,24,23,1911,1943,North Star Grain Co Ltd,Canadian Pacific,50000,cgn_direct
Wapella,MANITOBA,50.25958,-101.97298,107,22,23,1911,1943,Lake Of The Woods Milling Co Ltd,Canadian Pacific,55000,cgn_direct
Aylesbury,SASKATCHEWAN,50.93917,-105.69407,107,27,23,1911,1943,State Elevator Co Ltd,Canadian National Rys,39000,cgn_direct
Kisbey,SASKATCHEWAN,49.64628,-102.67263,106,35,23,1911,1943,Northern Elevator Co Ltd,Canadian Pacific,35000,cgn_direct
Tugaske,SASKATCHEWAN,50.87399,-106.28751,106,21,21,1911,1943,Pioneer Grain Co Ltd,Canadian Pacific,45000,cgn_direct
Woodhouse,ALBERTA,49.94167,-113.53944,106,26,23,1911,1943,Alberta Pacific Grain Co Ltd,Canadian Pacific,77000,cgn_direct
Radisson,SASKATCHEWAN,52.46294,-107.39546,106,25,22,1911,1943,British America Elevator Co Ltd,Canadian National Rys,56000,cgn_direct
Neville,SASKATCHEWAN,49.96393,-107.62868,106,21,22,1912,1943,State Elevator Co Ltd,Canadian Pacific,45000,cgn_direct
Brant,ALBERTA,50.51694,-113.51167,106,23,22,1912,1943,Alberta Pacific Grain Co Ltd,Canadian Pacific,84000,cgn_direct
Rush Lake,SASKATCHEWAN,50.40376,-107.40252,105,24,23,1911,1943,Lake Of The Woods Milling Co Ltd,Canadian Pacific,35000,cgn_direct
Maidstone,SASKATCHEWAN,53.08612,-109.29644,105,18,22,1911,1943,British America Elevator Co Ltd,Canadian National Rys,80000,cgn_direct
Oyen,ALBERTA,51.35278,-110.48333,105,27,21,1912,1943,Alberta Pacific Grain Co Ltd,Canadian National Rys,91000,cgn_direct
Gretna,MANITOBA,49.00778,-97.56167,104,25,23,1911,1943,Henry Ritz,Canadian Pacific,44000,cgn_direct
Gleichen,ALBERTA,50.86611,-113.05472,104,21,22,1911,1943,Pioneer Grain Co Ltd,Canadian Pacific,95000,cgn_direct
Rosetown,SASKATCHEWAN,51.55485,-107.99018,104,35,21,1911,1943,Ogilvie Flour Mills Co Ltd,Canadian Northern Ry Co,50000,cgn_direct
Denzil,SASKATCHEWAN,52.2271,-109.65145,104,12,22,1912,1943,North Star Grain Co Ltd,Canadian Pacific,70000,cgn_direct
Broderick,SASKATCHEWAN,51.48912,-106.91782,104,22,21,1913,1943,Ogilvie Flour Mills Co Ltd,Canadian Pacific,40000,cgn_direct
Kindersley,SASKATCHEWAN,51.46768,-109.15661,103,25,23,1911,1943,Pioneer Grain Co Ltd,Canadian National Rys,45000,cgn_direct
Fort Saskatchewan,ALBERTA,53.71111,-113.21778,103,18,23,1911,1943,Alberta Pacific Grain Co Ltd,Canadian National Rys,80000,cgn_direct
Hawarden,SASKATCHEWAN,51.41306,-106.60193,102,23,22,1911,1943,Mutual Grain Co Ltd,Canadian Pacific,40000,cgn_direct
Holdfast,SASKATCHEWAN,50.95825,-105.42156,102,17,22,1911,1943,United Grain Growers Ltd,Canadian Pacific,40000,cgn_direct
Saltcoats,SASKATCHEWAN,51.04065,-102.16692,102,22,22,1911,1943,United Grain Growers Ltd,Canadian Pacific,60000,cgn_direct
Viscount,SASKATCHEWAN,51.94902,-105.65248,102,15,23,1911,1943,Pioneer Grain Co Ltd,Canadian Pacific,35000,cgn_direct
Cayley,ALBERTA,50.44806,-113.84722,102,27,23,1911,1943,Alberta Pacific Grain Co Ltd,Canadian Pacific,76000,cgn_direct
Roblin,MANITOBA,51.23,-101.35556,102,17,23,1911,1943,Alberta Pacific Grain Co Ltd,Canadian National Rys,75000,cgn_direct
Basswood,MANITOBA,50.30139,-100.03361,102,25,22,1912,1943,Ogilvie Flour Mills Co Ltd,Canadian Pacific,50000,cgn_direct
Daysland,ALBERTA,52.86417,-112.255,102,24,21,1912,1943,Alberta Pacific Grain Co Ltd,Canadian Pacific,69000,cgn_direct
Hughton,SASKATCHEWAN,51.23338,-107.91734,102,25,18,1915,1943,M M Hess,Canadian National Rys,55000,cgn_direct
Monitor,ALBERTA,51.97833,-110.56944,102,16,21,1913,1943,United Grain Growers Ltd,Canadian Pacific,35000,cgn_direct
Drinkwater,SASKATCHEWAN,50.29494,-105.1338,101,23,23,1911,1943,Ogilvie Flour Mills Co Ltd,Canadian Pacific,36000,cgn_direct
Leduc,ALBERTA,53.26667,-113.54583,101,23,22,1911,1943,Alberta Pacific Grain Co Ltd,Canadian Pacific,60000,cgn_direct
Harris,SASKATCHEWAN,51.73298,-107.58031,101,30,22,1911,1943,Pioneer Grain Co Ltd,Canadian National Rys,110000,cgn_direct
Madison,SASKATCHEWAN,51.21672,-109.0174,101,22,18,1911,1943,North Star Grain Co Ltd,Canadian National Rys,40000,cgn_direct
Vonda,SASKATCHEWAN,52.32364,-106.09438,101,21,23,1911,1943,British America Elevator Co Ltd,Canadian National Rys,40000,cgn_direct
Dollard,SASKATCHEWAN,49.61546,-108.58366,101,15,20,1914,1943,Pioneer Grain Co Ltd,Canadian Pacific,35000,cgn_direct
Lancer,SASKATCHEWAN,50.80146,-108.87881,101,19,21,1913,1943,Ogilvie Flour Mills Co Ltd,Canadian Pacific,35000,cgn_direct
Carnduff,MANITOBA,49.17493,-101.79733,100,21,23,1911,1943,James Partridge,Canadian Pacific,50000,cgn_direct
Pense,SASKATCHEWAN,50.41524,-104.9847,100,19,21,1911,1943,Ogilvie Flour Mills Co Ltd,Canadian Pacific,50000,cgn_direct
Bow Island,ALBERTA,49.86722,-111.37889,100,26,23,1911,1943,United Grain Growers Ltd,Canadian Pacific,80000,cgn_direct
Cudworth,SASKATCHEWAN,52.49019,-105.73913,100,21,23,1911,1943,Alberta Pacific Grain Co Ltd,Canadian National Rys,30000,cgn_direct
Veregin,SASKATCHEWAN,51.58174,-102.07674,100,22,13,1915,1929,Christian Community Of Universal Brotherhood Ltd,Canadian National Rys,80000,cgn_direct
Lajord,SASKATCHEWAN,50.24023,-104.15372,99,18,23,1911,1943,Pioneer Grain Co Ltd,Canadian Pacific,60000,cgn_direct
Milden,SASKATCHEWAN,51.48649,-107.52124,99,20,23,1911,1943,Pioneer Grain Co Ltd,Canadian Pacific,45000,cgn_direct
Tyvan,SASKATCHEWAN,50.03255,-103.73125,99,15,23,1911,1943,Ogilvie Flour Mills Co Ltd,Canadian Pacific,40000,cgn_direct
Cluny,ALBERTA,50.84111,-112.86944,99,21,23,1911,1943,Alberta Pacific Grain Co Ltd,Canadian Pacific,95000,cgn_direct
Bladworth,SASKATCHEWAN,51.36742,-106.13917,99,14,22,1911,1943,British America Elevator Co Ltd,Canadian National Rys,50000,cgn_direct
Hague,SASKATCHEWAN,52.51071,-106.41735,99,19,23,1911,1943,North Star Grain Co Ltd,Canadian National Rys,45000,cgn_direct
Chinook,ALBERTA,51.44944,-110.92528,99,25,21,1912,1943,Pioneer Grain Co Ltd,Canadian National Rys,105000,cgn_direct
Hanna,ALBERTA,51.64583,-111.92528,99,20,21,1913,1943,National Elevator Co Ltd,Canadian National Rys,84000,cgn_direct
Moosomin,MANITOBA,50.14476,-101.671,98,22,23,1911,1943,Ogilvie Flour Mills Co Ltd,Canadian Pacific,50000,cgn_direct
Sedley,SASKATCHEWAN,50.1709,-104.01408,98,17,23,1911,1943,Lake Of The Woods Milling Co Ltd,Canadian Pacific,40000,cgn_direct
Tuxford,SASKATCHEWAN,50.57534,-105.58054,98,23,23,1911,1943,Ogilvie Flour Mills Co Ltd,Canadian Pacific,60000,cgn_direct
Lashburn,SASKATCHEWAN,53.12515,-109.61328,98,20,23,1911,1943,British America Elevator Co Ltd,Canadian National Rys,70000,cgn_direct
Quill Lake,SASKATCHEWAN,52.07112,-104.25641,98,20,23,1911,1943,British America Elevator Co Ltd,Canadian National Rys,55000,cgn_direct
Viking,ALBERTA,53.09472,-111.77556,98,19,22,1911,1943,United Grain Growers Ltd,Canadian National Rys,75000,cgn_direct
Eyebrow,SASKATCHEWAN,50.8022,-106.14925,98,21,21,1912,1943,State Elevator Co Ltd,Canadian Pacific,40000,cgn_direct
Craigmyle,ALBERTA,51.66972,-112.24306,98,19,21,1913,1943,Alberta Pacific Grain Co Ltd,Canadian National Rys,95000,cgn_direct
Francis,SASKATCHEWAN,50.1017,-103.86626,97,27,23,1911,1943,International Elevator Co Ltd,Canadian Pacific,35000,cgn_direct
Lipton,SASKATCHEWAN,50.90276,-103.84849,97,14,23,1911,1943,Pioneer Grain Co Ltd,Canadian Pacific,45000,cgn_direct
Qu'Appelle,SASKATCHEWAN,50.54251,-103.87351,97,18,23,1911,1943,Lake Of The Woods Milling Co Ltd,Canadian Pacific,35000,cgn_direct
Castor,ALBERTA,52.21917,-111.90361,97,22,23,1911,1943,Alberta Pacific Grain Co Ltd,Canadian Pacific,45000,cgn_direct
Semans,SASKATCHEWAN,51.40616,-104.73135,97,26,20,1911,1943,Lake Of The Woods Milling Co Ltd,Canadian National Rys,40000,cgn_direct
Shackleton,SASKATCHEWAN,50.68501,-108.60754,97,16,20,1913,1943,Alberta Pacific Grain Co Ltd,Canadian Pacific,70000,cgn_direct
Palmer,SASKATCHEWAN,49.85896,-106.3596,97,21,21,1913,1943,Alberta Pacific Grain Co Ltd,Canadian National Rys,60000,cgn_direct
Carseland,ALBERTA,50.85139,-113.46778,97,14,20,1914,1943,Alberta Pacific Grain Co Ltd,Canadian Pacific,73000,cgn_direct
Scotsguard,SASKATCHEWAN,49.72346,-108.14665,97,19,19,1914,1943,Pioneer Grain Co Ltd,Canadian Pacific,35000,cgn_direct
Marquis,SASKATCHEWAN,50.61898,-105.71924,96,24,23,1911,1943,North Star Grain Co Ltd,Canadian Pacific,30000,cgn_direct
Osage,SASKATCHEWAN,49.95621,-103.58174,96,20,23,1911,1943,International Elevator Co Ltd,Canadian Pacific,35000,cgn_direct
Rocanville,MANITOBA,50.38184,-101.70062,96,23,23,1911,1943,North Star Grain Co Ltd,Canadian Pacific,58000,cgn_direct
Salvador,SASKATCHEWAN,52.16673,-109.50075,96,18,23,1911,1943,Alberta Pacific Grain Co Ltd,Canadian Pacific,35000,cgn_direct
Marcelin,SASKATCHEWAN,52.92601,-106.79067,96,16,22,1911,1943,British America Elevator Co Ltd,Canadian National Rys,70000,cgn_direct
Togo,MANITOBA,51.4026,-101.58237,96,18,23,1911,1943,N Bawlf Grain Co Ltd,Canadian National Rys,60000,cgn_direct
Success,SASKATCHEWAN,50.46037,-108.07983,96,23,22,1912,1943,Ogilvie Flour Mills Co Ltd,Canadian Pacific,40000,cgn_direct
Carmichael,SASKATCHEWAN,50.04789,-108.64408,96,19,21,1913,1943,Central Grain Co Ltd,Canadian Pacific,30000,cgn_direct
Youngstown,ALBERTA,51.52889,-111.21028,96,20,21,1913,1943,Alberta Pacific Grain Co Ltd,Canadian National Rys,95000,cgn_direct
Keeler,SASKATCHEWAN,50.67907,-105.8808,95,18,23,1911,1943,Ogilvie Flour Mills Co Ltd,Canadian Pacific,45000,cgn_direct
Parkland,ALBERTA,50.25611,-113.65861,95,25,23,1911,1943,United Grain Growers Ltd,Canadian Pacific,73000,cgn_direct
Mikado,SASKATCHEWAN,51.60872,-102.2706,95,22,22,1911,1943,N Bawlf Grain Co Ltd,Canadian National Rys,70000,cgn_direct
Pennant,SASKATCHEWAN,50.53173,-108.23128,95,20,22,1912,1943,Pioneer Grain Co Ltd,Canadian Pacific,55000,cgn_direct
Wakaw,SASKATCHEWAN,52.6479,-105.74144,95,21,20,1912,1943,Alberta Pacific Grain Co Ltd,Canadian National Rys,50000,cgn_direct
Leader,SASKATCHEWAN,50.88757,-109.54661,95,18,17,1917,1943,Alberta Pacific Grain Co Ltd,Canadian Pacific,60000,cgn_direct
Standard,ALBERTA,51.10972,-112.98361,95,18,21,1913,1943,United Grain Growers Ltd,Canadian Pacific,73000,cgn_direct
Chipman,ALBERTA,53.69833,-112.63778,94,19,23,1911,1943,United Grain Growers Ltd,Canadian National Rys,73000,cgn_direct
Melaval,SASKATCHEWAN,49.69243,-106.44907,94,12,21,1913,1943,Ogilvie Flour Mills Co Ltd,Canadian Pacific,35000,cgn_direct
Deloraine,MANITOBA,49.19083,-100.49389,93,20,22,1911,1943,Ogilvie Flour Mills Co Ltd,Canadian Pacific,35000,cgn_direct
Killarney,MANITOBA,49.18333,-99.66278,93,13,23,1911,1943,Lake Of The Woods Milling Co Ltd,Canadian Pacific,50000,cgn_direct
Herschel,SASKATCHEWAN,51.63338,-108.3507,93,24,21,1911,1943,Canadian Elevator Co Ltd,Canadian Pacific,50000,cgn_direct
Strongfield,SASKATCHEWAN,51.33185,-106.59938,93,19,23,1911,1943,International Elevator Co Ltd,Canadian Pacific,45000,cgn_direct
Cardston,ALBERTA,49.2,-113.30389,93,19,23,1911,1943,Alberta Pacific Grain Co Ltd,Canadian Pacific,73000,cgn_direct
Swan Lake,MANITOBA,49.41167,-98.79139,93,13,23,1911,1943,United Grain Growers Ltd,Canadian National Rys,50000,cgn_direct
Birch Hills,SASKATCHEWAN,52.98404,-105.43252,93,19,23,1911,1943,British America Elevator Co Ltd,Canadian National Rys,70000,cgn_direct
Innisfail,ALBERTA,52.02814,-113.95064,93,17,22,1912,1943,Alberta Pacific Grain Co Ltd,Canadian Pacific,107000,cgn_direct
Adanac,SASKATCHEWAN,52.45285,-109.05628,92,21,23,1911,1943,United Grain Growers Ltd,Canadian Pacific,45000,cgn_direct
Norquay,SASKATCHEWAN,51.88415,-102.08943,92,14,23,1911,1943,Pioneer Grain Co Ltd,Canadian National Rys,55000,cgn_direct
Pelly,MANITOBA,51.85531,-101.93165,92,19,23,1911,1943,Pioneer Grain Co Ltd,Canadian National Rys,60000,cgn_direct
Craik,SASKATCHEWAN,51.0488,-105.82007,92,25,21,1912,1943,British America Elevator Co Ltd,Canadian National Rys,65000,cgn_direct
Meyronne,SASKATCHEWAN,49.66902,-106.83958,92,23,20,1913,1943,Ogilvie Flour Mills Co Ltd,Canadian Pacific,35000,cgn_direct
Lomond,ALBERTA,50.34944,-112.64056,92,18,19,1915,1943,United Grain Growers Ltd,Canadian Pacific,75000,cgn_direct
Milk River,ALBERTA,49.15,-112.08667,91,18,23,1911,1943,Alberta Pacific Grain Co Ltd,Canadian Pacific,73000,cgn_direct
Bradwell,SASKATCHEWAN,51.94669,-106.23075,91,18,23,1911,1943,Pioneer Grain Co Ltd,Canadian National Rys,35000,cgn_direct
Gray,SASKATCHEWAN,50.17059,-104.44438,91,21,22,1912,1943,Reliance Grain Co Ltd,Canadian National Rys,45000,cgn_direct
Admiral,SASKATCHEWAN,49.71669,-108.01735,91,17,20,1914,1943,Pioneer Grain Co Ltd,Canadian Pacific,50000,cgn_direct
Gilroy,SASKATCHEWAN,50.89826,-106.73686,91,23,20,1914,1943,State Elevator Co Ltd,Canadian National Rys,35000,cgn_direct
Alameda,SASKATCHEWAN,49.26815,-102.28706,90,37,23,1911,1943,Lake Of The Woods Milling Co Ltd,Canadian Pacific,80000,cgn_direct
Waldeck,SASKATCHEWAN,50.36129,-107.59277,90,15,23,1911,1943,Alberta Pacific Grain Co Ltd,Canadian Pacific,60000,cgn_direct
Clanwilliam,MANITOBA,50.36194,-99.81472,90,20,21,1911,1943,Ogilvie Flour Mills Co Ltd,Canadian National Rys,65000,cgn_direct
Bruno,SASKATCHEWAN,52.26546,-105.52481,90,13,23,1911,1943,North Star Grain Co Ltd,Canadian National Rys,64000,cgn_direct
Odessa,SASKATCHEWAN,50.28403,-103.78479,90,20,23,1911,1943,British America Elevator Co Ltd,Canadian National Rys,32000,cgn_direct
Lamont,ALBERTA,53.75917,-112.78444,90,22,23,1911,1943,Alberta Pacific Grain Co Ltd,Canadian National Rys,73000,cgn_direct
Mortlach,SASKATCHEWAN,50.45562,-106.06812,90,29,22,1912,1943,N M Paterson & Co Ltd,Canadian Pacific,60000,cgn_direct
Wymark,SASKATCHEWAN,50.1098,-107.73399,90,24,21,1912,1943,Pioneer Grain Co Ltd,Canadian Pacific,35000,cgn_direct
Hatton,SASKATCHEWAN,50.05005,-109.83411,90,20,19,1914,1943,Alberta Pacific Grain Co Ltd,Canadian Pacific,70000,cgn_direct
Riverhurst,SASKATCHEWAN,50.90337,-106.86717,90,16,18,1916,1943,Alberta Pacific Grain Co Ltd,Canadian National Rys,45000,cgn_direct
Hartney,MANITOBA,49.48083,-100.5225,89,15,23,1911,1943,United Grain Growers Ltd,Canadian Pacific,70000,cgn_direct
Esterhazy,SASKATCHEWAN,50.65315,-102.07105,89,16,22,1911,1943,F W Size,Canadian Pacific,40000,cgn_direct
Langenburg,MANITOBA,50.8441,-101.70107,89,15,23,1911,1943,United Grain Growers Ltd,Canadian Pacific,50000,cgn_direct
Acme,ALBERTA,51.49722,-113.50861,89,20,21,1911,1943,United Grain Growers Ltd,Canadian Pacific,73000,cgn_direct
Crossfield,ALBERTA,51.43056,-114.03083,89,20,23,1911,1943,Alberta Pacific Grain Co Ltd,Canadian Pacific,69000,cgn_direct
Warner,ALBERTA,49.28278,-112.20778,89,24,23,1911,1943,Alberta Pacific Grain Co Ltd,Canadian Pacific,73000,cgn_direct
Gilbert Plains,MANITOBA,51.14972,-100.48778,89,13,22,1911,1943,United Grain Growers Ltd,Canadian National Rys,50000,cgn_direct
Grandview,MANITOBA,51.17417,-100.69778,89,11,18,1911,1943,United Grain Growers Ltd,Canadian National Rys,65000,cgn_direct
Langham,SASKATCHEWAN,52.35846,-106.95784,89,21,23,1911,1943,National Elevator Co Ltd,Canadian National Rys,65000,cgn_direct
Cadillac,SASKATCHEWAN,49.72754,-107.74372,89,18,20,1914,1943,Pioneer Grain Co Ltd,Canadian Pacific,35000,cgn_direct
Elrose,SASKATCHEWAN,51.20148,-108.03321,89,29,21,1913,1943,Saskatchewan Pool Elevators Ltd,Canadian Northern Ry Co,45000,cgn_direct
Eston,SASKATCHEWAN,51.14917,-108.75746,89,22,19,1915,1943,Saskatchewan Pool Elevators Ltd,Canadian National Rys,59000,cgn_direct
Nobleford,ALBERTA,49.88139,-113.05583,89,17,18,1915,1943,Independent Grain Co Ltd,Canadian Pacific,83000,cgn_direct
Forestburg,ALBERTA,52.58389,-112.06444,89,11,17,1917,1943,United Grain Growers Ltd,Canadian National Rys,75000,cgn_direct
Cypress River,MANITOBA,49.55583,-99.08667,88,17,22,1911,1943,N M Paterson & Co Ltd,Canadian Pacific,50000,cgn_direct
Ninga,MANITOBA,49.2275,-99.88944,88,11,22,1911,1943,United Grain Growers Ltd,Canadian Pacific,40000,cgn_direct
Dysart,SASKATCHEWAN,50.94281,-104.03689,88,15,21,1911,1943,North Star Grain Co Ltd,Canadian Pacific,35000,cgn_direct
Liberty,SASKATCHEWAN,51.1411,-105.44686,88,13,23,1911,1943,North Star Grain Co Ltd,Canadian Pacific,38000,cgn_direct
Irvine,ALBERTA,49.95528,-110.27667,88,14,22,1911,1943,Alberta Pacific Grain Co Ltd,Canadian Pacific,41000,cgn_direct
Briercrest,SASKATCHEWAN,50.16729,-105.26492,88,19,22,1911,1943,Alberta Pacific Grain Co Ltd,Canadian National Rys,55000,cgn_direct
Kenaston,SASKATCHEWAN,51.50251,-106.27093,88,17,22,1911,1943,State Elevator Co Ltd,Canadian National Rys,40000,cgn_direct
Laird,SASKATCHEWAN,52.71473,-106.58972,88,13,23,1911,1943,United Grain Growers Ltd,Canadian National Rys,65000,cgn_direct
Richlea,SASKATCHEWAN,51.18338,-108.58405,88,22,18,1915,1943,Federal Grain Co Ltd,Canadian National Rys,63000,cgn_direct
Treherne,MANITOBA,49.62944,-98.69778,87,17,21,1911,1943,United Grain Growers Ltd,Canadian Pacific,70000,cgn_direct
Creelman,SASKATCHEWAN,49.82093,-103.3104,87,20,21,1911,1943,Lake Of The Woods Milling Co Ltd,Canadian Pacific,45300,cgn_direct
Guernsey,SASKATCHEWAN,51.87145,-105.18762,87,20,23,1911,1943,Lake Of The Woods Milling Co Ltd,Canadian Pacific,45000,cgn_direct
Macoun,SASKATCHEWAN,49.31343,-103.26207,87,14,23,1911,1943,International Elevator Co Ltd,Canadian Pacific,35000,cgn_direct
Manor,SASKATCHEWAN,49.60258,-102.08557,87,12,23,1911,1943,Ogilvie Flour Mills Co Ltd,Canadian Pacific,55000,cgn_direct
Springside,SASKATCHEWAN,51.34477,-102.74231,87,18,22,1911,1943,N Bawlf Grain Co Ltd,Canadian Pacific,50000,cgn_direct
Benito,MANITOBA,51.91389,-101.54833,87,26,22,1911,1943,British America Elevator Co Ltd,Canadian National Rys,50000,cgn_direct
Bethune,SASKATCHEWAN,50.71081,-105.20527,87,19,23,1911,1943,Pioneer Grain Co Ltd,Canadian National Rys,70000,cgn_direct
Dundurn,SASKATCHEWAN,51.8092,-106.50537,87,24,23,1911,1943,British America Elevator Co Ltd,Canadian National Rys,57000,cgn_direct
Shellbrook,SASKATCHEWAN,53.22033,-106.38854,87,23,22,1911,1943,Saskatchewan Elevator Co Ltd,Canadian National Rys,79000,cgn_direct
Tisdale,SASKATCHEWAN,52.84905,-104.0491,87,26,21,1911,1943,Searle Grain Co Ltd,Canadian National Rys,45000,cgn_direct
Plum Coulee,MANITOBA,49.19111,-97.76056,87,18,21,1911,1943,Ogilvie Flour Mills Co Ltd,Canadian Pacific,45000,cgn_direct
Verwood,SASKATCHEWAN,49.51066,-105.62052,87,29,21,1913,1943,Spencer Grain Co Ltd,Canadian Pacific,30000,cgn_direct
Alliance,ALBERTA,52.43444,-111.78528,87,15,18,1915,1943,United Grain Growers Ltd,Canadian National Rys,95000,cgn_direct
Hamiota,MANITOBA,50.18055,-100.59611,86,24,23,1911,1943,United Grain Growers Ltd,Canadian Pacific,41000,cgn_direct
Melfort,SASKATCHEWAN,52.85634,-104.60997,86,25,21,1911,1943,Searle Grain Co Ltd,Canadian Northern Ry Co,75000,cgn_direct
Manville,ALBERTA,53.34028,-111.17778,86,17,23,1911,1943,United Grain Growers Ltd,Canadian National Rys,117000,agent_high
Chaplin,SASKATCHEWAN,50.46086,-106.65718,86,20,21,1913,1943,Alberta Pacific Grain Co Ltd,Canadian Pacific,35000,cgn_direct
Eastend,SASKATCHEWAN,49.5163,-108.81981,86,13,17,1916,1943,Pioneer Grain Co Ltd,Canadian Pacific,30000,cgn_direct
Instow,SASKATCHEWAN,49.71669,-108.28403,86,14,20,1914,1943,Alberta Pacific Grain Co Ltd,Canadian Pacific,40000,cgn_direct
Regina,SASKATCHEWAN,50.45484,-104.60661,85,27,21,1911,1943,Western Canada Flour Mills Co Ltd,Canadian Pacific,70000,cgn_direct
Stalwart,SASKATCHEWAN,51.22995,-105.44172,85,20,22,1912,1943,State Elevator Co Ltd,Canadian Pacific,30000,cgn_direct
Coronation,ALBERTA,52.09472,-111.44778,85,12,22,1912,1943,Alberta Pacific Grain Co Ltd,Canadian Pacific,72000,cgn_direct
Pathlow,SASKATCHEWAN,52.71455,-104.80228,85,18,21,1913,1943,National Elevator Co Ltd,Canadian National Rys,50000,cgn_direct
Melita,MANITOBA,49.26806,-100.99583,84,15,21,1911,1943,Ogilvie Flour Mills Co Ltd,Canadian Pacific,62400,cgn_direct
Balcarres,SASKATCHEWAN,50.80496,-103.54425,84,20,19,1911,1941,Ogilvie Flour Mills Co Ltd,Canadian Pacific,35000,cgn_direct
Brownlee,SASKATCHEWAN,50.73634,-106.02099,84,18,22,1911,1943,Ogilvie Flour Mills Co Ltd,Canadian Pacific,37000,cgn_direct
Elbow,SASKATCHEWAN,51.12163,-106.59765,84,21,22,1911,1943,Central Grain Co Ltd,Canadian Pacific,35000,cgn_direct
Plenty,SASKATCHEWAN,51.78335,-108.64442,84,14,23,1911,1943,Saskatchewan Elevator Co Ltd,Canadian Pacific,30000,cgn_direct
Wynyard,SASKATCHEWAN,51.76883,-104.17933,84,16,23,1911,1943,National Elevator Co Ltd,Canadian Pacific,35000,cgn_direct
Calder,MANITOBA,51.15847,-101.7497,84,20,22,1912,1943,Northern Elevator Co Ltd,Canadian National Rys,55000,cgn_direct
Ensign,ALBERTA,50.475,-113.43167,84,19,20,1913,1943,Western Canada Flour Mills Co Ltd,Canadian Pacific,60000,cgn_direct
Foremost,ALBERTA,49.47639,-111.44694,84,15,21,1913,1943,United Grain Growers Ltd,Canadian Pacific,73000,cgn_direct
Morrin,ALBERTA,51.66028,-112.76722,84,14,21,1913,1943,United Grain Growers Ltd,Canadian National Rys,85000,cgn_direct
Lauder,MANITOBA,49.39056,-100.67694,83,12,23,1911,1943,Lake Of The Woods Milling Co Ltd,Canadian Pacific,50000,cgn_direct
Winkler,MANITOBA,49.18167,-97.94028,83,15,21,1911,1943,Ogilvie Flour Mills Co Ltd,Canadian Pacific,40000,cgn_direct
Perdue,SASKATCHEWAN,52.05411,-107.54485,83,15,23,1911,1943,North Star Grain Co Ltd,Canadian Pacific,42000,cgn_direct
Hughenden,ALBERTA,52.51056,-110.96722,83,16,23,1911,1943,National Elevator Co Ltd,Canadian Pacific,80000,cgn_direct
Kitscoty,ALBERTA,53.34194,-110.33333,83,20,22,1911,1943,Alberta Pacific Grain Co Ltd,Canadian National Rys,73000,cgn_direct
Primate,SASKATCHEWAN,52.26098,-109.81896,83,13,22,1912,1943,Reliance Grain Co Ltd,Canadian Pacific,32000,cgn_direct
Halkirk,ALBERTA,52.2825,-112.15361,83,13,22,1912,1943,Alberta Pacific Grain Co Ltd,Canadian Pacific,45000,cgn_direct
Avonlea,SASKATCHEWAN,50.01249,-105.05883,83,20,21,1912,1943,North Star Grain Co Ltd,Canadian National Rys,30000,cgn_direct
Lewvan,SASKATCHEWAN,50.00003,-104.10055,83,23,21,1912,1943,Western Elevator Co Ltd,Canadian National Rys,40000,cgn_direct
Revenue,SASKATCHEWAN,52.22715,-108.8993,83,11,21,1913,1943,Alberta Pacific Grain Co Ltd,Canadian Pacific,32000,cgn_direct
Compeer,ALBERTA,51.85944,-110.01306,83,15,20,1914,1943,Alberta Pacific Grain Co Ltd,Canadian Pacific,50000,cgn_direct
Galahad,ALBERTA,52.51417,-111.93055,83,16,18,1916,1943,Alberta Pacific Grain Co Ltd,Canadian National Rys,70000,cgn_direct
Sexsmith,ALBERTA,55.35028,-118.78167,83,16,18,1916,1943,Alberta Pacific Grain Co Ltd,Canadian Northern Alberta Ry Co,81000,cgn_direct
Grand Coulee,SASKATCHEWAN,50.43225,-104.8176,82,12,18,1911,1941,John Nicks,Canadian Pacific,62000,cgn_direct
Grassy Lake,ALBERTA,49.82611,-111.69944,82,19,23,1911,1943,Ogilvie Flour Mills Co Ltd,Canadian Pacific,41000,cgn_direct
Medicine Hat,ALBERTA,50.04083,-110.67667,82,18,22,1911,1943,Ogilvie Flour Mills Co Ltd,Canadian Pacific,500000,cgn_direct
Raymond,ALBERTA,49.465,-112.66111,82,17,23,1911,1943,United Grain Growers Ltd,Canadian Pacific,85000,cgn_direct
Arran,MANITOBA,51.88447,-101.71862,82,15,23,1911,1943,Pioneer Grain Co Ltd,Canadian National Rys,50000,cgn_direct
Laura,SASKATCHEWAN,51.85004,-107.26731,82,20,23,1911,1943,Quaker Oats Co,Canadian National Rys,40000,cgn_direct
Marshall,SASKATCHEWAN,53.19281,-109.77825,82,15,22,1911,1943,British America Elevator Co Ltd,Canadian National Rys,50000,cgn_direct
Piapot,SASKATCHEWAN,49.98959,-109.12821,82,13,22,1912,1943,Ogilvie Flour Mills Co Ltd,Canadian Pacific,35000,cgn_direct
Consort,ALBERTA,52.00778,-110.77417,82,17,22,1912,1943,Alberta Pacific Grain Co Ltd,Canadian Pacific,69800,cgn_direct
Stornoway,SASKATCHEWAN,51.29387,-102.03353,82,21,20,1912,1943,United Grain Growers Ltd,Canadian National Rys,60000,cgn_direct
Portreeve,SASKATCHEWAN,50.82332,-109.01132,82,15,20,1913,1943,Federal Grain Co Ltd,Canadian Pacific,35000,cgn_direct
Central Butte,SASKATCHEWAN,50.79759,-106.50652,82,17,20,1914,1943,Security Elevator Co Ltd,Canadian National Rys,32000,cgn_direct
Foxwarren,MANITOBA,50.51722,-101.15139,81,23,20,1911,1943,United Grain Growers Ltd,Canadian Pacific,60000,cgn_direct
Ernfold,SASKATCHEWAN,50.44837,-106.89262,81,16,22,1911,1943,Alberta Pacific Grain Co Ltd,Canadian Pacific,40000,cgn_direct
Kronau,SASKATCHEWAN,50.30588,-104.29117,81,11,22,1911,1943,Lake Of The Woods Milling Co Ltd,Canadian Pacific,45000,cgn_direct
Neudorf,SASKATCHEWAN,50.70973,-103.01424,81,13,23,1911,1943,North Star Grain Co Ltd,Canadian Pacific,37000,cgn_direct
Elgin,MANITOBA,49.44389,-100.26917,81,15,21,1911,1943,N M Paterson & Co Ltd,Canadian Northern Ry Co,50000,cgn_direct
Bengough,SASKATCHEWAN,49.39636,-105.1283,81,20,21,1912,1943,Western Canada Flour Mills Co Ltd,Canadian National Rys,40000,cgn_direct
Lemsford,SASKATCHEWAN,50.85005,-109.1174,81,11,20,1913,1943,Alberta Pacific Grain Co Ltd,Canadian Pacific,35000,cgn_direct
Forgan,SASKATCHEWAN,51.26826,-107.80141,81,17,21,1913,1943,State Elevator Co Ltd,Canadian National Rys,50000,cgn_direct
Plato,SASKATCHEWAN,51.16332,-108.44589,81,17,19,1915,1943,Mclaughlin Elevator Co Ltd,Canadian National Rys,41000,cgn_direct
Hussar,ALBERTA,51.04139,-112.68167,81,12,18,1915,1943,Independent Grain Co Ltd,Canadian Pacific,69000,cgn_direct
Shoal Lake,MANITOBA,50.43778,-100.59111,80,12,21,1911,1943,United Grain Growers Ltd,Canadian Pacific,90000,cgn_direct
Frobisher,SASKATCHEWAN,49.20981,-102.427,80,28,22,1911,1943,International Elevator Co Ltd,Canadian Pacific,45000,cgn_direct
Leslie,SASKATCHEWAN,51.691,-103.712,80,11,23,1911,1943,Pioneer Grain Co Ltd,Canadian Pacific,50000,wikipedia
Hardisty,ALBERTA,52.675,-111.30444,80,14,23,1911,1943,Alberta Pacific Grain Co Ltd,Canadian Pacific,63000,cgn_direct
Macleod,ALBERTA,49.72306,-113.40417,80,18,23,1911,1943,Alberta Pacific Grain Co Ltd,Canadian Pacific,190000,cgn_direct
Silverton,MANITOBA,50.76694,-101.15917,80,13,23,1911,1943,United Grain Growers Ltd,Canadian National Rys,37000,cgn_direct
Vanscoy,SASKATCHEWAN,52.00401,-106.97363,80,17,22,1911,1943,Quaker Oats Co,Canadian National Rys,50000,cgn_direct
Raymore,SASKATCHEWAN,51.40881,-104.52657,80,19,23,1911,1943,Security Elevator Co Ltd,Canadian National Rys,30000,cgn_direct
Holden,ALBERTA,53.23333,-112.23389,80,19,22,1911,1943,United Grain Growers Ltd,Canadian National Rys,66000,cgn_direct
Ogema,SASKATCHEWAN,49.57364,-104.91556,80,16,22,1912,1943,North Star Grain Co Ltd,Canadian Pacific,30000,cgn_direct
Veteran,ALBERTA,52.00278,-111.12083,80,16,21,1912,1943,Alberta Pacific Grain Co Ltd,Canadian Pacific,66000,cgn_direct
Sibbald,ALBERTA,51.38833,-110.15028,80,20,22,1912,1943,Alberta Pacific Grain Co Ltd,Canadian National Rys,80000,cgn_direct
Richard,SASKATCHEWAN,52.69273,-107.70269,80,17,21,1913,1943,Reliance Grain Co Ltd,Canadian National Rys,52000,cgn_direct
Domremy,SASKATCHEWAN,52.78337,-105.73387,80,15,20,1914,1943,Security Elevator Co Ltd,Canadian National Rys,70000,cgn_direct
Bulwark,ALBERTA,52.24167,-111.58667,80,12,20,1914,1943,United Grain Growers Ltd,Canadian Pacific,73000,cgn_direct
Manitou,MANITOBA,49.24056,-98.53667,79,17,20,1911,1943,Ogilvie Flour Mills Co Ltd,Canadian Pacific,50000,cgn_direct
Bounty,SASKATCHEWAN,51.51671,-107.36732,79,12,23,1911,1943,Ogilvie Flour Mills Co Ltd,Canadian Pacific,50000,cgn_direct
Carievale,MANITOBA,49.17567,-101.62701,79,12,23,1911,1943,Ogilvie Flour Mills Co Ltd,Canadian Pacific,35000,cgn_direct
Namaka,ALBERTA,50.95861,-113.2925,79,19,22,1911,1943,United Grain Growers Ltd,Canadian Pacific,65000,cgn_direct
Ardath,SASKATCHEWAN,51.61671,-107.23398,79,17,22,1911,1943,Reliance Grain Co Ltd,Canadian National Rys,40000,cgn_direct
Penzance,SASKATCHEWAN,51.06072,-105.44109,79,20,22,1912,1943,North Star Grain Co Ltd,Canadian Pacific,35000,cgn_direct
Trochu,ALBERTA,51.82861,-113.22806,79,15,20,1912,1943,United Grain Growers Ltd,Canadian National Rys,73000,cgn_direct
Evesham,SASKATCHEWAN,52.39118,-109.84521,79,12,21,1913,1943,United Grain Growers Ltd,Canadian Pacific,30000,cgn_direct
Humboldt,SASKATCHEWAN,52.20192,-105.12298,79,15,20,1914,1943,British America Elevator Co Ltd,Canadian National Rys,35000,cgn_direct
Speers,SASKATCHEWAN,52.70733,-107.55818,79,15,21,1913,1943,British America Elevator Co Ltd,Canadian National Rys,55000,cgn_direct
Caron,SASKATCHEWAN,50.45884,-105.8712,78,19,23,1911,1943,Lake Of The Woods Milling Co Ltd,Canadian Pacific,50000,cgn_direct
Fleming,MANITOBA,50.07473,-101.5131,78,12,23,1911,1943,Lake Of The Woods Milling Co Ltd,Canadian Pacific,45000,cgn_direct
Grayson,SASKATCHEWAN,50.71933,-102.64538,78,17,23,1911,1943,Western Canada Flour Mills Co Ltd,Canadian Pacific,50000,cgn_direct
Macklin,SASKATCHEWAN,52.33623,-109.93888,78,12,23,1911,1943,United Grain Growers Ltd,Canadian Pacific,65000,cgn_direct
Welwyn,MANITOBA,50.32469,-101.51758,78,22,23,1911,1943,Welwyn Farmers Elevator Co Ltd,Canadian Pacific,35000,cgn_direct
Cadogan,ALBERTA,52.31917,-110.44861,78,19,22,1911,1943,Alberta Pacific Grain Co Ltd,Canadian Pacific,52000,cgn_direct
Ponoka,ALBERTA,52.675,-113.58,78,19,23,1911,1943,Alberta Pacific Grain Co Ltd,Canadian Pacific,77000,cgn_direct
Dunrea,MANITOBA,49.40583,-99.73083,78,12,22,1911,1943,United Grain Growers Ltd,Canadian National Rys,50000,cgn_direct
Somerset,MANITOBA,49.41222,-98.66056,78,13,23,1911,1943,United Grain Growers Ltd,Canadian National Rys,50000,cgn_direct
Sperling,MANITOBA,49.50806,-97.70472,78,12,23,1911,1943,Ogilvie Flour Mills Co Ltd,Canadian National Rys,60000,cgn_direct
Glenavon,SASKATCHEWAN,50.19302,-103.13865,78,16,23,1911,1943,United Grain Growers Ltd,Canadian National Rys,37000,cgn_direct
Waseca,SASKATCHEWAN,53.09857,-109.46995,78,18,21,1911,1943,Canadian Elevator Co Ltd,Canadian National Rys,55000,cgn_direct
Unity,SASKATCHEWAN,52.44212,-109.15749,78,22,19,1911,1943,Maple Leaf Milling Co Ltd,Grand Trunk Pacific Ry Co,35000,cgn_direct
Stranraer,SASKATCHEWAN,51.70684,-108.48476,78,16,21,1912,1943,Saskatchewan Elevator Co Ltd,Canadian Pacific,70000,cgn_direct
Tramping Lake,SASKATCHEWAN,52.13612,-108.94922,78,16,20,1913,1943,Saskatchewan Elevator Co Ltd,Canadian Pacific,45000,cgn_direct
Altona,MANITOBA,49.10472,-97.55889,77,12,23,1911,1943,J Schwartz & Co,Canadian Pacific,48000,cgn_direct
Strathclair,MANITOBA,50.40472,-100.39667,77,15,21,1911,1943,United Grain Growers Ltd,Canadian Pacific,35000,cgn_direct
Carlyle,SASKATCHEWAN,49.63539,-102.26636,77,16,23,1911,1943,Northern Elevator Co Ltd,Canadian Pacific,35000,cgn_direct
Elstow,SASKATCHEWAN,51.98899,-106.0579,77,19,22,1911,1943,Maple Leaf Milling Co Ltd,Canadian Pacific,30000,cgn_direct
Bawlf,ALBERTA,52.91944,-112.46611,77,14,23,1911,1943,Alberta Pacific Grain Co Ltd,Canadian Pacific,69000,cgn_direct
Beatty,SASKATCHEWAN,52.90003,-104.8043,77,18,23,1911,1943,National Elevator Co Ltd,Canadian National Rys,54000,cgn_direct
Waldheim,SASKATCHEWAN,52.62253,-106.65479,77,16,23,1911,1943,British America Elevator Co Ltd,Canadian National Rys,52000,cgn_direct
Zelma,SASKATCHEWAN,51.84159,-105.91011,77,16,22,1911,1943,Western Elevator Co Ltd,Canadian National Rys,30000,cgn_direct
Brock,SASKATCHEWAN,51.44155,-108.71687,77,22,21,1912,1943,British America Elevator Co Ltd,Canadian Northern Ry Co,30000,cgn_direct
Ruddell,SASKATCHEWAN,52.60527,-107.85787,77,19,22,1912,1943,British America Elevator Co Ltd,Canadian National Rys,45000,cgn_direct
Cereal,ALBERTA,51.41833,-110.80028,77,17,21,1912,1943,Alberta Pacific Grain Co Ltd,Canadian National Rys,95000,cgn_direct
Estuary,SASKATCHEWAN,50.93539,-109.8183,77,19,19,1915,1943,Alberta Pacific Grain Co Ltd,Canadian Pacific,60000,cgn_direct
Estlin,SASKATCHEWAN,50.25137,-104.52842,77,12,21,1913,1943,Pioneer Grain Co Ltd,Canadian National Rys,70000,cgn_direct
Riceton,SASKATCHEWAN,50.10946,-104.31911,77,16,19,1915,1943,Pioneer Grain Co Ltd,Canadian National Rys,60000,cgn_direct
Goodlands,MANITOBA,49.09444,-100.60389,76,15,23,1911,1943,Lake Of The Woods Milling Co Ltd,Canadian Pacific,50000,cgn_direct
Antler,MANITOBA,49.56605,-101.45752,76,26,22,1911,1943,Western Canada Flour Mills Co Ltd,Canadian Pacific,35000,cgn_direct
Earl Grey,SASKATCHEWAN,50.93552,-104.71121,76,13,18,1911,1943,Saskatchewan Pool Elevators Ltd,Canadian Pacific,45000,cgn_direct
Elfros,SASKATCHEWAN,51.74326,-103.86073,76,14,22,1911,1943,National Elevator Co Ltd,Canadian Pacific,45000,cgn_direct
McTaggart,SASKATCHEWAN,49.7309,-104.01183,76,21,22,1911,1943,Lake Of The Woods Milling Co Ltd,Canadian Pacific,35000,cgn_direct
Outlook,SASKATCHEWAN,51.48902,-107.05266,76,18,23,1911,1943,Outlook Saskatchewan Flour Mills Co Ltd,Canadian Pacific,40000,cgn_direct
Redvers,MANITOBA,49.57042,-101.70235,76,23,23,1911,1943,Western Canada Flour Mills Co Ltd,Canadian Pacific,35000,cgn_direct
Theodore,SASKATCHEWAN,51.42466,-102.92256,76,20,20,1911,1943,N Bawlf Grain Co Ltd,Canadian Pacific,55000,cgn_direct
Penhold,ALBERTA,52.13694,-113.87306,76,21,23,1911,1943,United Grain Growers Ltd,Canadian Pacific,73000,cgn_direct
Swan River,MANITOBA,52.10583,-101.26667,76,15,22,1911,1943,Pioneer Grain Co Ltd,Canadian National Rys,49000,cgn_direct
Maymont,SASKATCHEWAN,52.56278,-107.70735,76,10,22,1911,1943,British America Elevator Co Ltd,Canadian National Rys,70000,cgn_direct
Rathwell,MANITOBA,49.64694,-98.54639,76,11,20,1912,1943,United Grain Growers Ltd,Canadian Pacific,40000,cgn_direct
Alsask,SASKATCHEWAN,51.37972,-109.99701,76,16,20,1912,1943,International Elevator Co Ltd,Canadian National Rys,50000,cgn_direct
Antelope,SASKATCHEWAN,50.15004,-108.33403,76,17,20,1913,1943,Central Grain Co Ltd,Canadian Pacific,45000,cgn_direct
Robsart,SASKATCHEWAN,49.37288,-109.28208,76,13,20,1914,1943,North Star Grain Co Ltd,Canadian Pacific,45000,cgn_direct
Stenen,SASKATCHEWAN,51.90122,-102.38438,76,10,18,1914,1943,Pioneer Grain Co Ltd,Canadian National Rys,55000,cgn_direct
Loyalist,ALBERTA,51.98583,-110.95444,76,16,21,1913,1943,United Grain Growers Ltd,Canadian Pacific,48000,cgn_direct
Rockyford,ALBERTA,51.23417,-113.1425,76,19,19,1914,1943,Alberta Pacific Grain Co Ltd,Canadian National Rys,70000,cgn_direct
Glen Ewen,SASKATCHEWAN,49.20993,-102.01776,75,16,16,1911,1943,International Elevator Co,Canadian Pacific,50000,cgn_direct
Oxbow,SASKATCHEWAN,49.22992,-102.16927,75,30,23,1911,1943,W O Fraser,Canadian Pacific,75000,cgn_direct
Whitewood,SASKATCHEWAN,50.33115,-102.26985,75,18,22,1911,1943,Lake Of The Woods Milling Co Ltd,Canadian Pacific,42000,cgn_direct
Montmartre,SASKATCHEWAN,50.22013,-103.45084,75,16,22,1911,1943,British America Elevator Co Ltd,Canadian National Rys,30000,cgn_direct
Ebenezer,SASKATCHEWAN,51.36981,-102.44838,75,19,23,1911,1943,N Bawlf Grain Co Ltd,Canadian National Rys,35000,cgn_direct
Leney,SASKATCHEWAN,52.03617,-107.55617,75,17,23,1911,1943,Pioneer Grain Co Ltd,Canadian National Rys,40000,cgn_direct
Hyas,SASKATCHEWAN,51.89308,-102.26033,75,9,21,1912,1943,Pioneer Grain Co Ltd,Canadian National Rys,55000,cgn_direct
Lloydminster,SASKATCHEWAN,53.27796,-109.98025,75,17,21,1912,1943,Canadian Elevator Co Ltd,Canadian Northern Ry Co,35000,cgn_direct
Corinne,SASKATCHEWAN,50.04711,-104.6256,74,12,22,1911,1943,Ogilvie Flour Mills Co Ltd,Canadian Pacific,40000,cgn_direct
Dubuc,SASKATCHEWAN,50.68322,-102.47687,74,12,22,1911,1943,Ogilvie Flour Mills Co Ltd,Canadian Pacific,32000,cgn_direct
Kinley,SASKATCHEWAN,52.06695,-107.42592,74,19,19,1911,1943,State Elevator Co Ltd,Canadian Pacific,42000,cgn_direct
Angusville,MANITOBA,50.73556,-101.02056,74,14,22,1911,1943,United Grain Growers Ltd,Canadian National Rys,70000,cgn_direct
Goodeve,SASKATCHEWAN,51.06306,-103.18847,74,14,23,1911,1943,Standard Elevator Co Ltd,Canadian National Rys,35000,cgn_direct
Napinka,MANITOBA,49.3225,-100.84111,73,12,22,1911,1943,Ogilvie Flour Mills Co Ltd,Canadian Pacific,50000,cgn_direct
Summerberry,SASKATCHEWAN,50.42597,-103.09431,73,15,22,1911,1943,N M Paterson & Co Ltd,Canadian Pacific,55000,cgn_direct
Aldersyde,ALBERTA,50.67611,-113.87889,73,17,22,1911,1943,United Grain Growers Ltd,Canadian Pacific,66000,cgn_direct
Monarch,ALBERTA,49.80444,-113.10778,73,17,23,1911,1943,Alberta Pacific Grain Co Ltd,Canadian Pacific,35000,cgn_direct
Winnifred,ALBERTA,49.90444,-111.20972,73,16,23,1911,1943,Lake Of The Woods Milling Co Ltd,Canadian Pacific,41000,cgn_direct
Leask,SASKATCHEWAN,53.02015,-106.74156,73,14,21,1911,1943,Searle Grain Co Ltd,Canadian National Rys,76000,cgn_direct
Valparaiso,SASKATCHEWAN,52.85084,-104.18152,73,15,23,1911,1943,British America Elevator Co Ltd,Canadian National Rys,62000,cgn_direct
Wroxton,MANITOBA,51.22382,-101.88498,73,13,21,1911,1943,N Bawlf Grain Co Ltd,Canadian National Rys,60000,cgn_direct
Lavoy,ALBERTA,53.45667,-111.86528,73,18,23,1911,1943,United Grain Growers Ltd,Canadian National Rys,84000,cgn_direct
Hafford,SASKATCHEWAN,52.72699,-107.35336,73,15,21,1913,1943,National Elevator Co Ltd,Canadian National Rys,50000,cgn_direct
Snipe Lake,SASKATCHEWAN,51.16548,-108.88769,73,14,17,1917,1943,North Star Grain Co Ltd,Canadian National Rys,63000,cgn_direct
Oak Lake,MANITOBA,49.76639,-100.62806,72,17,21,1911,1943,Ogilvie Flour Mills Co Ltd,Canadian Pacific,60000,cgn_direct
Waskada,MANITOBA,49.09667,-100.80194,72,15,21,1911,1943,Lake Of The Woods Milling Co Ltd,Canadian Pacific,50000,cgn_direct
Cymric,SASKATCHEWAN,51.24127,-104.98451,72,15,22,1911,1943,Western Elevator Co Ltd,Canadian Pacific,35000,cgn_direct
Jansen,SASKATCHEWAN,51.78677,-104.71625,72,11,23,1911,1943,Pioneer Grain Co Ltd,Canadian Pacific,35000,cgn_direct
Midale,SASKATCHEWAN,49.39638,-103.4107,72,14,23,1911,1943,Lake Of The Woods Milling Co Ltd,Canadian Pacific,35000,cgn_direct
Strassburg,SASKATCHEWAN,51.07028,-104.9555,72,21,15,1911,1926,International Elevator Co Ltd,Canadian Pacific,40000,agent_high
Senlac,SASKATCHEWAN,52.49314,-109.70824,72,11,23,1911,1943,Federal Grain Co Ltd,Canadian Pacific,43000,cgn_direct
New Dayton,ALBERTA,49.42556,-112.38139,72,19,23,1911,1943,Alberta Pacific Grain Co Ltd,Canadian Pacific,73000,cgn_direct
Bruderheim,ALBERTA,53.79972,-112.92833,72,17,22,1911,1943,Alberta Pacific Grain Co Ltd,Canadian National Rys,90000,cgn_direct
Islay,ALBERTA,53.39389,-110.53889,72,18,23,1911,1943,N Bawlf Grain Co Ltd,Canadian National Rys,73000,cgn_direct
Dilke,SASKATCHEWAN,50.86648,-105.25164,72,10,22,1912,1943,United Grain Growers Ltd,Canadian Pacific,35000,cgn_direct
Burstall,SASKATCHEWAN,50.65563,-109.90937,72,16,13,1921,1943,N M Paterson & Co Ltd,Canadian Pacific,50000,cgn_direct
Willowbrook,SASKATCHEWAN,51.20433,-102.79684,72,18,17,1915,1943,Dominion Elevator Co Ltd,Canadian National Rys,30000,cgn_direct
Czar,ALBERTA,52.45472,-110.82833,72,13,21,1913,1943,National Elevator Co Ltd,Canadian Pacific,50000,cgn_direct
Clairmont,ALBERTA,55.26139,-118.79361,72,13,17,1916,1943,United Grain Growers Ltd,Canadian Northern Alberta Ry Co,81000,cgn_direct
Westlock,ALBERTA,54.15528,-113.85694,72,12,18,1916,1943,United Grain Growers Ltd,Canadian Northern Alberta Ry Co,73000,cgn_direct
Lanigan,SASKATCHEWAN,51.84903,-105.0299,71,9,23,1911,1943,International Elevator Co Ltd,Canadian Pacific,40000,cgn_direct
Moose Jaw,SASKATCHEWAN,50.39342,-105.55195,71,19,22,1911,1943,Robin Hood Mills Ltd,Canadian Pacific,5500000,cgn_direct
Windthorst,SASKATCHEWAN,50.10861,-102.83529,71,14,22,1911,1943,N M Paterson & Co Ltd,Canadian Pacific,40000,cgn_direct
Bowden,ALBERTA,51.93222,-114.03472,71,14,21,1911,1943,Alberta Pacific Grain Co Ltd,Canadian Pacific,65000,cgn_direct
Welling,ALBERTA,49.48111,-112.78556,71,18,23,1911,1943,Ogilvie Flour Mills Co Ltd,Canadian Pacific,73000,cgn_direct
Innisfree,ALBERTA,53.3825,-111.53083,71,11,22,1911,1943,United Grain Growers Ltd,Canadian National Rys,73000,cgn_direct
Edgerton,ALBERTA,52.75861,-110.45806,71,17,21,1911,1943,United Grain Growers Ltd,Canadian National Rys,73000,cgn_direct
Bromhead,SASKATCHEWAN,49.18125,-103.67678,71,16,21,1913,1943,Lake Of The Woods Milling Co Ltd,Canadian Pacific,35000,cgn_direct
Hamton,SASKATCHEWAN,51.43333,-102.33381,71,18,19,1915,1943,N Bawlf Grain Co Ltd,Canadian National Rys,60000,cgn_direct
Elkhorn,MANITOBA,49.97556,-101.23944,70,11,23,1911,1943,Ogilvie Flour Mills Co Ltd,Canadian Pacific,45000,cgn_direct
Griswold,MANITOBA,49.775,-100.47083,70,12,22,1911,1943,United Grain Growers Ltd,Canadian Pacific,45000,cgn_direct
Lockwood,SASKATCHEWAN,51.65003,-105.01723,70,13,23,1911,1943,Saskatchewan Elevator Co Ltd,Canadian Pacific,40000,cgn_direct
Plunkett,SASKATCHEWAN,51.90686,-105.44599,70,11,23,1911,1943,North Star Grain Co Ltd,Canadian Pacific,45000,cgn_direct
Botha,ALBERTA,52.30806,-112.52389,70,17,22,1911,1943,Alberta Pacific Grain Co Ltd,Canadian Pacific,72000,cgn_direct
Kendal,SASKATCHEWAN,50.25488,-103.61589,70,12,23,1911,1943,United Grain Growers Ltd,Canadian National Rys,65000,cgn_direct
Montreal,QUEBEC,45.50882,-73.55408,70,23,19,1911,1943,Φ**montreal Harbour Commissioners,Montreal Harbour Commissioners,5000000,cgn_direct
Brandon,MANITOBA,49.84694,-99.95222,70,15,19,1912,1943,Western Canada Flour Mills Co Ltd,Canadian Pacific,125000,cgn_direct
Kirkcaldy,ALBERTA,50.335,-113.23778,70,19,16,1912,1943,National Elevator Co Ltd,Canadian Pacific,80000,cgn_direct
Meacham,SASKATCHEWAN,52.10023,-105.76488,70,22,22,1912,1943,Alberta Pacific Grain Co Ltd,Canadian National Rys,64000,cgn_direct
Valor,SASKATCHEWAN,49.63414,-106.12364,70,17,21,1913,1943,Alberta Pacific Grain Co Ltd,Canadian Pacific,35000,cgn_direct
Dunblane,SASKATCHEWAN,51.20304,-106.88073,70,17,18,1915,1943,Pioneer Grain Co Ltd,Canadian National Rys,55000,cgn_direct
Lawson,SASKATCHEWAN,50.85704,-106.64041,70,11,19,1915,1943,N M Paterson & Co Ltd,Canadian National Rys,30000,cgn_direct
Chancellor,ALBERTA,51.08528,-112.83389,70,8,16,1918,1943,Alberta Pacific Grain Co Ltd,Canadian Pacific,66000,cgn_direct
Empress,ALBERTA,50.95556,-110.00583,70,14,18,1915,1943,Lake Of The Woods Milling Co Ltd,Canadian Pacific,73000,cgn_direct
Elm Creek,MANITOBA,49.67556,-97.9925,69,11,23,1911,1943,N M Paterson & Co Ltd,Canadian Pacific,40000,cgn_direct
Heward,SASKATCHEWAN,49.7374,-103.15046,69,8,22,1911,1943,Ogilvie Flour Mills Co Ltd,Canadian Pacific,50000,cgn_direct
Kerrobert,SASKATCHEWAN,51.92166,-109.14068,69,16,23,1911,1943,Alberta Pacific Grain Co Ltd,Canadian Pacific,45000,cgn_direct
Gadsby,ALBERTA,52.2925,-112.34667,69,12,23,1911,1943,Alberta Pacific Grain Co Ltd,Canadian Pacific,105000,cgn_direct
Lacombe,ALBERTA,52.46444,-113.73417,69,19,23,1911,1943,Alberta Pacific Grain Co Ltd,Canadian Pacific,71000,cgn_direct
Strome,ALBERTA,52.81083,-112.06722,69,24,20,1911,1943,Alberta Pacific Grain Co Ltd,Canadian Pacific,50000,cgn_direct
Denholm,SASKATCHEWAN,52.65751,-108.01018,69,11,23,1911,1943,British America Elevator Co Ltd,Canadian National Rys,52000,cgn_direct
Irma,ALBERTA,52.91194,-111.22833,69,15,22,1911,1943,United Grain Growers Ltd,Canadian National Rys,73000,cgn_direct
Pilot Mound,MANITOBA,49.20139,-98.89389,69,11,20,1912,1943,Ogilvie Flour Mills Co Ltd,Canadian Pacific,40000,cgn_direct
Ceylon,SASKATCHEWAN,49.45856,-104.60232,69,19,22,1912,1943,Western Canada Flour Mills Co Ltd,Canadian National Rys,30000,cgn_direct
Preeceville,SASKATCHEWAN,51.95802,-102.66732,69,17,21,1912,1943,Saskatchewan Elevator Co Ltd,Canadian National Rys,35000,cgn_direct
Retlaw,ALBERTA,50.06889,-112.26333,69,16,21,1913,1943,Ogilvie Flour Mills Co Ltd,Canadian Pacific,73000,cgn_direct
Travers,ALBERTA,50.24389,-112.55639,69,13,19,1914,1943,United Grain Growers Ltd,Canadian Pacific,73000,cgn_direct
Hilda,ALBERTA,50.47972,-110.03278,69,14,12,1923,1943,Lake Of The Woods Milling Co Ltd,Canadian Pacific,73000,cgn_direct
Cartwright,MANITOBA,49.09556,-99.34,68,17,23,1911,1943,N M Paterson & Co Ltd,Canadian Pacific,50000,cgn_direct
Glenboro,MANITOBA,49.55583,-99.29111,68,10,23,1911,1943,Ogilvie Flour Mills Co Ltd,Canadian Pacific,50000,cgn_direct
Morden,MANITOBA,49.19194,-98.10056,68,16,21,1911,1943,Ogilvie Flour Mills Co Ltd,Canadian Pacific,65000,cgn_direct
Minnedosa,MANITOBA,50.24528,-99.84278,68,16,20,1911,1943,Ogilvie Flour Mills Co Ltd,Canadian Pacific,40000,cgn_direct
Phippen,SASKATCHEWAN,52.44377,-108.8854,68,15,22,1911,1943,United Grain Growers Ltd,Canadian Pacific,35000,cgn_direct
Sheho,SASKATCHEWAN,51.58568,-103.21201,68,14,23,1911,1943,N Bawlf Grain Co Ltd,Canadian Pacific,35000,cgn_direct
Olds,ALBERTA,51.79194,-114.1075,68,22,20,1911,1943,United Grain Growers Ltd,Canadian Pacific,81000,cgn_direct
Hepburn,SASKATCHEWAN,52.52394,-106.73131,68,11,22,1911,1943,British America Elevator Co Ltd,Canadian National Rys,40000,cgn_direct
Boissevain,MANITOBA,49.23056,-100.055,68,17,22,1911,1943,Lake Of The Woods Milling Co Ltd,Canadian Pacific,50000,cgn_direct
Crystal City,MANITOBA,49.14639,-98.94889,68,12,21,1912,1943,N M Paterson & Co Ltd,Canadian Pacific,50000,cgn_direct
Readlyn,SASKATCHEWAN,49.58336,-105.65057,68,14,21,1913,1943,North Star Grain Co Ltd,Canadian Pacific,35000,cgn_direct
Vantage,SASKATCHEWAN,49.84113,-106.03428,68,20,19,1915,1943,Ogilvie Flour Mills Co Ltd,Canadian Pacific,35000,cgn_direct
Flaxcombe,SASKATCHEWAN,51.47693,-109.60709,68,17,21,1913,1943,International Elevator Co Ltd,Canadian National Rys,45000,cgn_direct
St. Brieux,SASKATCHEWAN,52.63842,-104.88508,68,13,19,1914,1943,Alberta Pacific Grain Co Ltd,Canadian National Rys,80000,cgn_direct
Russell,MANITOBA,50.78083,-101.28389,67,13,21,1911,1943,United Grain Growers Ltd,Canadian Pacific,40000,cgn_direct
Bridgeford,SASKATCHEWAN,50.93858,-106.42008,67,14,22,1911,1943,State Elevator Co Ltd,Canadian Pacific,35000,cgn_direct
Kenville,MANITOBA,52.00028,-101.32361,67,7,23,1911,1943,United Grain Growers Ltd,Canadian National Rys,80000,cgn_direct
Binscarth,MANITOBA,50.62667,-101.28278,67,12,22,1912,1943,United Grain Growers Ltd,Canadian Pacific,40000,cgn_direct
Leipzig,SASKATCHEWAN,52.18339,-108.68405,67,12,22,1912,1943,Saskatchewan Elevator Co Ltd,Canadian Pacific,50000,cgn_direct
Munson,ALBERTA,51.56333,-112.73833,67,12,22,1912,1943,United Grain Growers Ltd,Canadian National Rys,75000,cgn_direct
Glidden,SASKATCHEWAN,51.23723,-109.16393,67,13,16,1918,1943,Federal Grain Co Ltd,Canadian National Rys,40000,cgn_direct
Bon Accord,ALBERTA,53.83694,-113.41222,67,13,19,1915,1943,United Grain Growers Ltd,Canadian Northern Alberta Ry Co,41000,cgn_direct
Forrest,MANITOBA,49.96639,-99.93667,66,15,22,1911,1943,Lake Of The Woods Milling Co Ltd,Canadian Pacific,50000,cgn_direct
Virden,MANITOBA,49.85083,-100.93167,66,10,21,1911,1943,United Grain Growers Ltd,Canadian Pacific,40000,cgn_direct
Asquith,SASKATCHEWAN,52.13477,-107.22661,66,24,21,1911,1943,Western Elevator Co Ltd,Canadian Pacific,40000,cgn_direct
Mozart,SASKATCHEWAN,51.77592,-103.99423,66,15,23,1911,1943,National Elevator Co Ltd,Canadian Pacific,30000,cgn_direct
Pangman,SASKATCHEWAN,49.64639,-104.65993,66,15,23,1911,1943,International Elevator Co Ltd,Canadian Pacific,30000,cgn_direct
Wilkie,SASKATCHEWAN,52.40865,-108.70367,66,14,23,1911,1943,United Grain Growers Ltd,Canadian Pacific,65000,cgn_direct
Bashaw,ALBERTA,52.58306,-112.97028,66,19,21,1911,1943,Gillespie Grain Co Ltd,Canadian National Rys,84000,cgn_direct
Muenster,SASKATCHEWAN,52.19118,-104.9938,66,14,22,1911,1943,British America Elevator Co Ltd,Canadian National Rys,40000,cgn_direct
Ituna,SASKATCHEWAN,51.16814,-103.49846,66,15,22,1911,1943,Union Grain Co Ltd,Canadian National Rys,30000,cgn_direct
Kelliher,SASKATCHEWAN,51.26293,-103.74016,66,18,22,1911,1943,Western Elevator Co Ltd,Canadian National Rys,50000,cgn_direct
Tate,SASKATCHEWAN,51.44256,-104.82966,66,15,22,1911,1943,Saskatchewan Pool Elevators Ltd,Canadian National Rys,35000,cgn_direct
Chauvin,ALBERTA,52.69361,-110.14111,66,16,21,1911,1943,United Grain Growers Ltd,Canadian National Rys,73000,cgn_direct
Wainwright,ALBERTA,52.83417,-110.85806,66,12,22,1911,1943,United Grain Growers Ltd,Canadian National Rys,114000,cgn_direct
Kandahar,SASKATCHEWAN,51.75801,-104.36183,66,10,21,1912,1943,National Elevator Co Ltd,Canadian Pacific,37000,cgn_direct
Marengo,SASKATCHEWAN,51.47966,-109.7836,66,18,21,1912,1943,Canadian Elevator Co Ltd,Canadian National Rys,55000,cgn_direct
Colfax,SASKATCHEWAN,49.94778,-103.99133,66,11,19,1912,1943,N M Paterson & Co Ltd,Canadian National Rys,35000,cgn_direct
Carmel,SASKATCHEWAN,52.22369,-105.35354,66,13,19,1914,1943,North Star Grain Co Ltd,Canadian National Rys,41000,cgn_direct
Arrowwood,ALBERTA,50.73944,-113.14833,66,16,9,1925,1943,United Grain Growers Ltd,Canadian Pacific,73000,cgn_direct
Kenton,MANITOBA,49.9875,-100.61417,65,12,23,1911,1943,United Grain Growers Ltd,Canadian Pacific,40000,cgn_direct
Rosenfeld,MANITOBA,49.19917,-97.54889,65,14,17,1911,1943,Ogilvie Flour Mills Co Ltd,Canadian Pacific,40000,cgn_direct
Forget,SASKATCHEWAN,49.65367,-102.87007,65,9,23,1911,1943,Ogilvie Flour Mills Co Ltd,Canadian Pacific,35000,cgn_direct
Minto,MANITOBA,49.4075,-100.02111,65,17,22,1911,1943,Mccabe Elevator Co Ltd,Great Northern Ry Co,40000,cgn_direct
Landis,SASKATCHEWAN,52.19846,-108.45177,65,18,23,1911,1943,Standard Elevator Co Ltd,Canadian National Rys,45000,cgn_direct
Lestock,SASKATCHEWAN,51.31087,-103.98005,65,20,23,1911,1943,Security Elevator Co Ltd,Canadian National Rys,31000,cgn_direct
Watrous,SASKATCHEWAN,51.68516,-105.46347,65,19,22,1911,1943,Alberta Pacific Grain Co Ltd,Canadian National Rys,32000,cgn_direct
Rockhaven,SASKATCHEWAN,52.67108,-108.87239,65,17,19,1912,1943,Saskatchewan Elevator Co Ltd,Canadian Pacific,45000,cgn_direct
Alexander,MANITOBA,49.83,-100.29528,64,18,22,1911,1943,N M Paterson & Co Ltd,Canadian Pacific,50000,cgn_direct
High Bluff,MANITOBA,50.01889,-98.14806,64,6,23,1911,1943,A Forsythe & Co,Canadian Pacific,40000,cgn_direct
Medora,MANITOBA,49.25472,-100.69611,64,12,21,1911,1943,United Grain Growers Ltd,Canadian Pacific,50000,cgn_direct
Balgonie,SASKATCHEWAN,50.49146,-104.26291,64,19,22,1911,1943,Ogilvie Flour Mills Co Ltd,Canadian Pacific,50000,cgn_direct
Drake,SASKATCHEWAN,51.74711,-105.01139,64,8,23,1911,1943,North Star Grain Co Ltd,Canadian Pacific,35000,cgn_direct
Dafoe,SASKATCHEWAN,51.75345,-104.52299,64,12,20,1911,1943,National Elevator Co Ltd,Canadian Pacific,35000,cgn_direct
Wauchope,MANITOBA,49.59566,-101.90596,64,23,23,1911,1943,Western Canada Flour Mills Co Ltd,Canadian Pacific,35000,cgn_direct
Prince Albert,SASKATCHEWAN,53.19952,-105.76009,64,16,21,1911,1943,One Northern Milling Co Ltd,Canadian National Rys,50000,cgn_direct
Bangor,SASKATCHEWAN,50.80593,-102.34186,64,11,23,1911,1943,Standard Elevator Co Ltd,Grand Trunk Pacific Ry Co,35000,cgn_direct
Reston,MANITOBA,49.5575,-101.09333,64,11,20,1912,1943,Lake Of The Woods Milling Co Ltd,Canadian Pacific,50000,cgn_direct
Coutts,ALBERTA,49.00278,-111.95889,64,14,22,1912,1943,Alberta Pacific Grain Co Ltd,Canadian Pacific,59000,cgn_direct
Weldon,SASKATCHEWAN,53.00913,-105.14801,64,16,21,1912,1943,National Elevator Co Ltd,Canadian National Rys,75000,cgn_direct
Mendham,SASKATCHEWAN,50.77227,-109.66426,64,13,13,1921,1943,N M Paterson & Co Ltd,Canadian Pacific,30000,cgn_direct
Naicam,SASKATCHEWAN,52.41949,-104.49659,64,10,13,1921,1943,Searle Grain Co Ltd,Canadian Pacific,50000,cgn_direct
Superb,SASKATCHEWAN,51.87641,-109.43825,64,12,20,1914,1943,Federal Grain Co Ltd,Canadian Pacific,32000,cgn_direct
Vidora,SASKATCHEWAN,49.32776,-109.40879,64,11,18,1915,1943,Alberta Pacific Grain Co Ltd,Canadian Pacific,30000,cgn_direct
Willows,SASKATCHEWAN,49.60204,-105.83742,64,15,21,1913,1943,Saskatchewan Co-operative Elevator Co Ltd,Canadian Pacific,32000,cgn_direct
Brooksby,SASKATCHEWAN,53.00131,-104.31739,64,11,13,1921,1943,Searle Grain Co Ltd,Canadian National Rys,70000,cgn_direct
Legal,ALBERTA,53.9495,-113.59511,64,11,16,1917,1943,United Grain Growers Ltd,Canadian National Rys,56000,cgn_direct
Huxley,ALBERTA,51.9225,-113.23167,64,17,17,1915,1943,United Grain Growers Ltd,Canadian National Rys,73000,cgn_direct
Hobbema,ALBERTA,52.9536,-113.5742,63,15,21,1911,1943,Alberta Pacific Grain Co Ltd,Canadian Pacific,66000,manual_historical
Okotoks,ALBERTA,50.72611,-113.9775,63,12,23,1911,1943,Hogg & Lytle Ltd,Canadian Pacific,95000,cgn_direct
Roland,MANITOBA,49.36639,-97.94,63,18,22,1911,1943,United Grain Growers Ltd,Canadian National Rys,45000,cgn_direct
Biggar,SASKATCHEWAN,52.06346,-107.97907,63,14,21,1911,1943,Security Elevator Co Ltd,Canadian Pacific,32000,cgn_direct
Anglia,SASKATCHEWAN,51.56672,-108.16736,63,15,19,1912,1943,Saskatchewan Elevator Co Ltd,Canadian Pacific,33000,cgn_direct
Kelfield,SASKATCHEWAN,51.94311,-108.61183,63,15,22,1912,1943,Alberta Pacific Grain Co Ltd,Canadian Pacific,70000,cgn_direct
Beiseker,ALBERTA,51.385,-113.53611,63,13,21,1912,1943,United Grain Growers Ltd,Canadian Pacific,55000,cgn_direct
Truax,SASKATCHEWAN,49.90447,-104.94411,63,16,22,1912,1943,Saskatchewan Co-operative Elevator Co Ltd,Canadian National Rys,60000,cgn_direct
Major,SASKATCHEWAN,51.87425,-109.61328,63,12,20,1914,1943,Federal Grain Co Ltd,Canadian Pacific,40000,cgn_direct
Springwater,SASKATCHEWAN,51.97129,-108.37806,63,15,20,1913,1943,Alberta Pacific Grain Co Ltd,Canadian National Rys,50000,cgn_direct
Dalemead,ALBERTA,50.87472,-113.6375,63,16,19,1915,1943,Western Canada Flour Mills Co Ltd,Canadian Pacific,70000,cgn_direct
Milo,ALBERTA,50.57,-112.88194,63,15,10,1925,1943,United Grain Growers Ltd,Canadian Pacific,64800,cgn_direct
Parkbeg,SASKATCHEWAN,50.45412,-106.26344,62,13,23,1911,1943,N M Paterson & Co Ltd,Canadian Pacific,50000,cgn_direct
Carman,MANITOBA,49.49917,-98.00083,62,14,22,1911,1943,United Grain Growers Ltd,Canadian Pacific,51000,cgn_direct
Oakburn,MANITOBA,50.56528,-100.57889,62,11,23,1911,1943,United Grain Growers Ltd,Canadian National Rys,30000,cgn_direct
Vista,MANITOBA,50.62028,-100.71778,62,10,21,1911,1943,United Grain Growers Ltd,Canadian National Rys,30000,cgn_direct
Wadena,SASKATCHEWAN,51.94593,-103.79568,62,17,21,1911,1943,Saskatchewan Elevator Co Ltd,Canadian Northern Ry Co,35000,cgn_direct
Waldron,SASKATCHEWAN,50.84993,-102.51334,62,14,22,1911,1943,Security Elevator Co Ltd,Canadian National Rys,35000,cgn_direct
Cutknife,SASKATCHEWAN,52.74747,-109.01589,62,12,21,1912,1943,Saskatchewan Elevator Co Ltd,Canadian Pacific,30000,cgn_direct
Handel,SASKATCHEWAN,52.06673,-108.70072,62,13,21,1912,1943,United Grain Growers Ltd,Canadian Pacific,47000,cgn_direct
Beadle,SASKATCHEWAN,51.46672,-109.00073,62,14,22,1912,1943,Stewart Grain Co Ltd,Canadian National Rys,30000,cgn_direct
Conquest,SASKATCHEWAN,51.52926,-107.24372,62,17,19,1912,1943,Ogilvie Flour Mills Co Ltd,Canadian Pacific,35000,cgn_direct
Congress,SASKATCHEWAN,49.7541,-106.02084,62,15,17,1916,1943,North Star Grain Co Ltd,Canadian Pacific,53000,cgn_direct
Lipsett,SASKATCHEWAN,52.78334,-104.68383,62,9,17,1916,1943,Alberta Pacific Grain Co Ltd,Canadian National Rys,70000,cgn_direct
Lucky Lake,SASKATCHEWAN,50.98527,-107.13304,62,11,14,1920,1943,Alberta Pacific Grain Co Ltd,Canadian National Rys,50000,cgn_direct
Darmody,SASKATCHEWAN,50.71346,-106.28166,62,15,21,1913,1943,State Elevator Co Ltd,Canadian National Rys,32000,cgn_direct
Spirit River,ALBERTA,55.77861,-118.83667,62,16,19,1915,1943,Alberta Pacific Grain Co Ltd,Canadian Northern Alberta Ry Co,74000,cgn_direct
Frontier,SASKATCHEWAN,49.20452,-108.5618,62,15,12,1923,1943,Alberta Pacific Grain Co Ltd,Canadian Pacific,50000,cgn_direct
Souris,MANITOBA,49.61722,-100.26028,61,14,21,1911,1943,Lake Of The Woods Milling Co Ltd,Canadian Pacific,315000,cgn_direct
Killaley,SASKATCHEWAN,50.75402,-102.83119,61,12,22,1911,1941,Ogilvie Flour Mills Co Ltd,Canadian Pacific,31000,agent_high
Brocket,ALBERTA,49.54667,-113.74972,61,19,19,1911,1943,Alberta Pacific Grain Co Ltd,Canadian Pacific,62000,cgn_direct
Strathmore,ALBERTA,51.04556,-113.39306,61,16,22,1911,1943,Alberta Pacific Grain Co Ltd,Canadian Pacific,35000,cgn_direct
Lumsden,SASKATCHEWAN,50.64708,-104.87035,61,13,23,1911,1943,N M Paterson & Co Ltd,Canadian Northern Ry Co,33000,cgn_direct
Netherhill,SASKATCHEWAN,51.46839,-108.85845,61,14,23,1911,1943,Pioneer Grain Co Ltd,Canadian National Rys,60000,cgn_direct
Fenwood,SASKATCHEWAN,51.01213,-103.04612,61,14,23,1911,1943,Security Elevator Co Ltd,Canadian National Rys,30000,cgn_direct
Young,SASKATCHEWAN,51.76523,-105.74447,61,19,22,1911,1941,Security Elevator Co Ltd,Grand Trunk Pacific Ry Co,32000,cgn_direct
Cedoux,SASKATCHEWAN,49.88251,-103.86043,61,13,22,1912,1943,Security Elevator Co Ltd,Canadian National Rys,32000,cgn_direct
Swalwell,ALBERTA,51.55722,-113.31833,61,12,20,1912,1943,Alberta Pacific Grain Co Ltd,Canadian National Rys,40000,cgn_direct
Canwood,SASKATCHEWAN,53.35934,-106.60342,61,10,18,1915,1943,Searle Grain Co Ltd,Canadian National Rys,72000,cgn_direct
Krydor,SASKATCHEWAN,52.78742,-107.07481,61,14,20,1914,1943,Searle Grain Co Ltd,Canadian National Rys,55000,cgn_direct
Smoky Lake,ALBERTA,54.11,-112.47583,61,11,15,1919,1943,Alberta Pacific Grain Co Ltd,Canadian National Rys,62000,cgn_direct
Kelvington,SASKATCHEWAN,52.16295,-103.52575,61,15,12,1923,1943,North Star Grain Co Ltd,Canadian National Rys,63000,cgn_direct
La Fleche,SASKATCHEWAN,49.70538,-106.57584,61,28,10,1913,1943,N M Paterson & Co Ltd,Canadian Pacific,50000,cgn_direct
Bredenbury,SASKATCHEWAN,50.94125,-102.04404,60,11,20,1911,1943,N Bawlf Grain Co Ltd,Canadian Pacific,75000,cgn_direct
Churchbridge,MANITOBA,50.89483,-101.89325,60,14,23,1911,1943,Northern Elevator Co Ltd,Canadian Pacific,45000,cgn_direct
Nokomis,SASKATCHEWAN,51.51082,-105.00683,60,14,21,1911,1943,North Star Grain Co Ltd,Canadian Pacific,40000,cgn_direct
Coaldale,ALBERTA,49.72778,-112.61861,60,17,23,1911,1943,Ellison Milling & Elevator Co Ltd,Canadian Pacific,122000,cgn_direct
Ohaton,ALBERTA,52.96944,-112.65611,60,22,23,1911,1943,N Bawlf Grain Co Ltd,Canadian Pacific,60000,cgn_direct
Miami,MANITOBA,49.37111,-98.24389,60,18,21,1911,1943,Miami Farmers Elevator Co Ltd,Canadian Northern Ry Co,40000,cgn_direct
Fielding,SASKATCHEWAN,52.51905,-107.54402,60,16,23,1911,1943,British America Elevator Co Ltd,Canadian National Rys,52000,cgn_direct
Bruce,ALBERTA,53.17389,-112.03861,60,14,21,1911,1943,Alberta Pacific Grain Co Ltd,Canadian National Rys,73000,cgn_direct
Stavely,ALBERTA,50.16111,-113.64167,60,17,14,1912,1943,Alberta Pacific Grain Co Ltd,Canadian Pacific,92000,cgn_direct
Dalmeny,SASKATCHEWAN,52.33956,-106.77141,60,16,22,1912,1943,United Grain Growers Ltd,Canadian Northern Ry Co,52000,cgn_direct
D'Arcy,SASKATCHEWAN,51.46502,-108.53962,60,14,22,1912,1943,Saskatchewan Pool Elevators Ltd,Canadian National Rys,35000,cgn_direct
Enchant,ALBERTA,50.17,-112.4225,60,9,19,1914,1943,Ogilvie Flour Mills Co Ltd,Canadian Pacific,73000,cgn_direct
Heisler,ALBERTA,52.66861,-112.22278,60,14,18,1915,1943,Pioneer Grain Co Ltd,Canadian National Rys,80000,cgn_direct
Kelsey,ALBERTA,52.84583,-112.54889,60,11,18,1916,1943,United Grain Growers Ltd,Canadian National Rys,70000,cgn_direct
Darlingford,MANITOBA,49.20389,-98.37806,59,14,22,1911,1943,Darlingford Farmers Elevator Co Ltd,Canadian Pacific,60000,cgn_direct
Mather,MANITOBA,49.09889,-99.19111,59,7,20,1911,1943,United Grain Growers Ltd,Canadian Pacific,50000,cgn_direct
Stockholm,SASKATCHEWAN,50.65745,-102.3026,59,12,23,1911,1943,Pioneer Grain Co Ltd,Canadian Pacific,35000,cgn_direct
Langdon,ALBERTA,50.96889,-113.6775,59,13,21,1911,1943,Alberta Pacific Grain Co Ltd,Canadian Pacific,50000,cgn_direct
Pincher,ALBERTA,49.52389,-113.94806,59,18,23,1911,1943,Lake Of The Woods Milling Co Ltd,Canadian Pacific,73000,cgn_direct
Edam,SASKATCHEWAN,53.18789,-108.76757,59,11,23,1911,1943,British America Elevator Co Ltd,Canadian National Rys,70000,cgn_direct
St. Gregor,SASKATCHEWAN,52.18081,-104.83099,59,12,23,1911,1943,British America Elevator Co Ltd,Canadian National Rys,54000,cgn_direct
Chamberlain,SASKATCHEWAN,50.85146,-105.56865,59,15,22,1912,1943,N M Paterson & Co Ltd,Canadian National Rys,35000,cgn_direct
Broadacres,SASKATCHEWAN,52.04534,-108.97872,59,10,20,1913,1943,Federal Grain Co Ltd,Canadian Pacific,35000,cgn_direct
Carlton,SASKATCHEWAN,52.81297,-106.48831,59,12,19,1915,1943,Saskatchewan Elevator Co Ltd,Canadian National Rys,50000,cgn_direct
Ridgedale,SASKATCHEWAN,53.05652,-104.15451,59,12,13,1921,1943,Searle Grain Co Ltd,Canadian National Rys,55000,cgn_direct
Spring Valley,SASKATCHEWAN,49.94342,-105.40313,59,13,21,1913,1943,Alberta Pacific Grain Co Ltd,Canadian National Rys,32000,cgn_direct
Nemiscam,ALBERTA,49.48,-111.27611,59,10,17,1916,1943,United Grain Growers Ltd,Canadian Pacific,73000,agent_high
Coleville,SASKATCHEWAN,51.7096,-109.24529,59,15,20,1913,1943,Stewart Grain Co Ltd,Canadian National Rys,50000,cgn_direct
Dominion City,MANITOBA,49.14194,-97.15556,58,14,22,1911,1943,Lake Of The Woods Milling Co Ltd,Canadian Pacific,30000,cgn_direct
Morris,MANITOBA,49.355,-97.365,58,15,21,1911,1943,N M Paterson & Co Ltd,Canadian Pacific,44000,cgn_direct
Walsh,ALBERTA,49.94722,-110.0425,58,12,23,1911,1943,Alberta Pacific Grain Co Ltd,Canadian Pacific,52000,cgn_direct
Watson,SASKATCHEWAN,52.12942,-104.51884,58,20,19,1911,1941,Western Canada Flour Mills Co Ltd,Canadian Northern Ry Co,50000,cgn_direct
Melville,SASKATCHEWAN,50.93043,-102.80784,58,17,23,1911,1943,Melville Milling Co,Canadian National Rys,70000,cgn_direct
Sturgis,SASKATCHEWAN,51.94048,-102.54417,58,10,22,1912,1943,United Grain Growers Ltd,Canadian National Rys,55000,cgn_direct
Torquay,SASKATCHEWAN,49.142,-103.49435,58,18,19,1914,1943,Lake Of The Woods Milling Co Ltd,Canadian Pacific,35000,cgn_direct
Minburn,ALBERTA,53.31556,-111.36417,58,13,21,1913,1943,Alberta Pacific Grain Co Ltd,Canadian National Rys,55000,cgn_direct
Bechard,SASKATCHEWAN,50.05003,-104.21722,58,15,17,1914,1943,Security Elevator Co Ltd,Canadian National Rys,31000,cgn_direct
Franklin,MANITOBA,50.24417,-99.66472,57,12,23,1911,1943,Ogilvie Flour Mills Co Ltd,Canadian Pacific,40000,cgn_direct
Miniota,MANITOBA,50.14333,-101.03306,57,10,18,1911,1943,Lake Of The Woods Milling Co Ltd,Canadian Pacific,30000,cgn_direct
Solsgirth,MANITOBA,50.49028,-100.91389,57,14,18,1911,1943,United Grain Growers Ltd,Canadian Pacific,203000,cgn_direct
Thornhill,MANITOBA,49.20028,-98.23167,57,8,21,1911,1943,Ogilvie Flour Mills Co Ltd,Canadian Pacific,40000,cgn_direct
Millet,ALBERTA,53.09611,-113.47278,57,10,23,1911,1943,Alberta Pacific Grain Co Ltd,Canadian Pacific,73000,cgn_direct
Taber,ALBERTA,49.78475,-112.15097,57,19,15,1911,1943,Alberta Pacific Grain Co Ltd,Canadian Pacific,64000,cgn_direct
Altamont,MANITOBA,49.39861,-98.49722,57,9,22,1911,1943,United Grain Growers Ltd,Canadian National Rys,35000,cgn_direct
Fairfax,MANITOBA,49.435,-100.12833,57,12,21,1911,1943,N M Paterson & Co Ltd,Canadian National Rys,47000,cgn_direct
Homewood,MANITOBA,49.50861,-97.86417,57,9,23,1911,1943,United Grain Growers Ltd,Canadian National Rys,50000,cgn_direct
Gerald,MANITOBA,50.66536,-101.79397,57,13,23,1911,1943,Saskatchewan Pool Elevators Ltd,Grand Trunk Pacific Ry Co,35000,cgn_direct
Dummer,SASKATCHEWAN,49.84365,-104.8375,57,16,21,1912,1943,Reliance Grain Co Ltd,Canadian National Rys,30000,cgn_direct
Radville,SASKATCHEWAN,49.46099,-104.29736,57,19,21,1912,1943,Saskatchewan Pool Elevators Ltd,Canadian National Rys,35000,cgn_direct
Hodgeville,SASKATCHEWAN,50.11451,-106.96432,57,8,14,1920,1943,Alberta Pacific Grain Co Ltd,Canadian National Rys,35000,cgn_direct
Parkside,SASKATCHEWAN,53.16601,-106.53393,57,10,21,1913,1943,British America Elevator Co Ltd,Canadian National Rys,53000,cgn_direct
Paynton,SASKATCHEWAN,53.01254,-108.93593,57,10,19,1915,1943,British America Elevator Co Ltd,Canadian National Rys,70000,cgn_direct
Etzikom,ALBERTA,49.47694,-111.10722,57,7,17,1917,1943,United Grain Growers Ltd,Canadian Pacific,78000,cgn_direct
Gibbons,ALBERTA,53.82972,-113.32833,57,11,15,1919,1943,Alberta Pacific Grain Co Ltd,Canadian National Rys,48000,cgn_direct
Rosebud,ALBERTA,51.29972,-112.95111,57,12,17,1916,1943,National Elevator Co Ltd,Canadian National Rys,73000,cgn_direct
Snowflake,MANITOBA,49.0475,-98.65917,56,10,21,1911,1943,Lake Of The Woods Milling Co Ltd,Canadian Pacific,40000,cgn_direct
Bassano,ALBERTA,50.7875,-112.46833,56,11,22,1911,1943,Alberta Pacific Grain Co Ltd,Canadian Pacific,35000,cgn_direct
Stettler,ALBERTA,52.32389,-112.70444,56,20,22,1911,1943,Alberta Pacific Grain Co Ltd,Canadian Pacific,60000,cgn_direct
Belmont,MANITOBA,49.40944,-99.45639,56,17,22,1911,1943,Dominion Elevator Co Ltd,Canadian Northern Ry Co,40000,cgn_direct
Elphinstone,MANITOBA,50.53111,-100.32194,56,18,21,1911,1943,Northern Elevator Co Ltd,Canadian National Rys,35000,cgn_direct
Lowe Farm,MANITOBA,49.35472,-97.58889,56,13,22,1911,1943,Western Canada Flour Mills Co Ltd,Canadian National Rys,40000,cgn_direct
North Battleford,SASKATCHEWAN,52.75744,-108.28617,56,11,23,1911,1943,Western Canada Flour Mills Co Ltd,Canadian National Rys,39000,cgn_direct
Candiac,SASKATCHEWAN,50.20906,-103.25758,56,9,21,1912,1943,British America Elevator Co Ltd,Canadian National Rys,52000,cgn_direct
Rumsey,ALBERTA,51.84194,-112.8425,56,15,21,1912,1943,Parrish & Heimbecker Ltd,Canadian National Rys,73000,cgn_direct
Tribune,SASKATCHEWAN,49.24785,-103.82527,56,14,20,1913,1943,International Elevator Co Ltd,Canadian Pacific,35000,cgn_direct
Viceroy,SASKATCHEWAN,49.46019,-105.36884,56,13,20,1913,1943,North Star Grain Co Ltd,Canadian Pacific,70000,cgn_direct
Runnymede,MANITOBA,51.48157,-101.70143,56,9,19,1914,1943,N Bawlf Grain Co Ltd,Canadian National Rys,60000,cgn_direct
Eskbank,SASKATCHEWAN,50.66997,-106.14311,56,14,21,1913,1943,Standard Elevator Co Ltd,Canadian National Rys,30000,cgn_direct
Bindloss,ALBERTA,50.88,-110.27361,56,11,19,1915,1943,Alberta Pacific Grain Co Ltd,Canadian Pacific,73000,cgn_direct
Stanmore,ALBERTA,51.57972,-111.5125,56,15,21,1913,1943,National Elevator Co Ltd,Canadian National Rys,65000,cgn_direct
Fox Valley,SASKATCHEWAN,50.4663,-109.48237,56,10,9,1926,1943,Saskatchewan Pool Elevators Ltd,Canadian Pacific,50000,cgn_direct
Kelloe,MANITOBA,50.47694,-100.76611,55,15,23,1911,1943,United Grain Growers Ltd,Canadian Pacific,35000,cgn_direct
Oak River,MANITOBA,50.13583,-100.43,55,10,21,1911,1943,Ogilvie Flour Mills Co Ltd,Canadian Pacific,40000,cgn_direct
Colonsay,SASKATCHEWAN,51.97649,-105.87224,55,12,22,1911,1943,North Star Grain Co Ltd,Canadian Pacific,35000,cgn_direct
Fairlight,MANITOBA,49.87585,-101.67941,55,11,22,1911,1943,Western Canada Flour Mills Co Ltd,Canadian Pacific,45000,cgn_direct
Saskatoon,SASKATCHEWAN,52.13965,-106.68618,55,19,23,1911,1943,Quaker Oats Co,Canadian Pacific,5500000,cgn_direct
Camrose,ALBERTA,53.02472,-112.82417,55,18,22,1911,1943,Alberta Pacific Grain Co Ltd,Canadian Pacific,70000,cgn_direct
Clive,ALBERTA,52.47528,-113.44833,55,12,23,1911,1943,Alberta Pacific Grain Co Ltd,Canadian Pacific,73000,cgn_direct
Rosebank,MANITOBA,49.37056,-98.11333,55,12,23,1911,1943,United Grain Growers Ltd,Canadian National Rys,35000,cgn_direct
Goodwater,SASKATCHEWAN,49.39449,-103.70488,55,11,23,1911,1943,North Star Grain Co Ltd,Canadian National Rys,45000,cgn_direct
Swanson,SASKATCHEWAN,51.69629,-107.14207,55,17,22,1911,1943,Reliance Grain Co Ltd,Canadian National Rys,50000,cgn_direct
Spruce Grove,ALBERTA,53.55389,-113.90222,55,9,22,1911,1943,Gillespie Grain Co Ltd,Canadian National Rys,62000,cgn_direct
Clavet,SASKATCHEWAN,51.99629,-106.37716,55,16,23,1911,1943,Stewart Grain Co Ltd,Canadian National Rys,30000,cgn_direct
Otthon,SASKATCHEWAN,51.09676,-102.59681,55,14,22,1911,1943,Levi Beck,Canadian National Rys,35000,cgn_direct
Venn,SASKATCHEWAN,51.61147,-105.29966,55,14,22,1911,1943,Security Elevator Co Ltd,Canadian National Rys,30000,cgn_direct
Birtle,MANITOBA,50.4225,-101.0475,55,11,22,1912,1943,Northern Elevator Co Ltd,Canadian Pacific,40000,cgn_direct
Horizon,SASKATCHEWAN,49.5167,-105.21721,55,9,22,1912,1943,Ogilvie Flour Mills Co Ltd,Canadian Pacific,35000,cgn_direct
Renown,SASKATCHEWAN,51.63337,-105.55059,55,11,22,1912,1943,Alberta Pacific Grain Co Ltd,Canadian Pacific,35000,cgn_direct
Browning,SASKATCHEWAN,49.43839,-102.63003,55,11,22,1912,1943,Saskatchewan Elevator Co Ltd,Canadian National Rys,30000,cgn_direct
St. Boniface,MANITOBA,49.875,-97.07972,55,27,15,1914,1941,Western Canada Flour Mills Co Ltd,Canadian Pacific,1000000,cgn_direct
Mossbank,SASKATCHEWAN,49.93963,-105.96317,55,26,20,1914,1943,Modern Elevator Co Ltd,Canadian Pacific,40000,cgn_direct
Prince,SASKATCHEWAN,52.96219,-108.36826,55,12,20,1913,1943,British America Elevator Co Ltd,Canadian National Rys,70000,cgn_direct
Hoey,SASKATCHEWAN,52.86734,-105.79498,55,13,18,1915,1943,Saskatchewan Pool Elevators Ltd,Canadian National Rys,35000,cgn_direct
Mawer,SASKATCHEWAN,50.74864,-106.39073,55,20,20,1913,1943,Saskatchewan Pool Elevators Ltd,Canadian National Rys,30000,cgn_direct
Vermilion,ALBERTA,53.35472,-110.85278,55,11,13,1915,1943,United Grain Growers Ltd,Canadian National Rys,98000,cgn_direct
Gladstone,MANITOBA,50.22583,-98.95,54,14,20,1911,1943,Wiley Low & Co Ltd,Canadian Pacific,90000,cgn_direct
Lenore,MANITOBA,49.95833,-100.75167,54,8,20,1911,1943,Ogilvie Flour Mills Co Ltd,Canadian Pacific,68500,cgn_direct
Pitman,SASKATCHEWAN,50.2495,-105.0305,54,11,23,1911,1943,Conger Sanborn Co Ltd,Canadian Pacific,40000,cgn_direct
Amisk,ALBERTA,52.56556,-111.05722,54,11,22,1911,1943,United Grain Growers Ltd,Canadian Pacific,64000,cgn_direct
Raley,ALBERTA,49.29028,-113.18306,54,19,22,1911,1943,Alberta Pacific Grain Co Ltd,Canadian Pacific,45000,cgn_direct
Vibank,SASKATCHEWAN,50.33402,-103.94573,54,14,23,1911,1943,British America Elevator Co Ltd,Canadian National Rys,30000,cgn_direct
Punnichy,SASKATCHEWAN,51.37152,-104.2976,54,12,22,1911,1943,Standard Elevator Co Ltd,Canadian National Rys,30000,cgn_direct
Quinton,SASKATCHEWAN,51.38711,-104.4103,54,11,23,1911,1943,Standard Elevator Co Ltd,Canadian National Rys,32000,cgn_direct
Oakville,MANITOBA,49.92944,-98.00389,54,7,22,1912,1943,United Grain Growers Ltd,Canadian National Rys,50000,cgn_direct
Edberg,ALBERTA,52.78472,-112.78917,54,15,22,1912,1943,United Grain Growers Ltd,Canadian National Rys,56000,cgn_direct
Dewar Lake,SASKATCHEWAN,51.63218,-109.63721,54,14,20,1913,1943,Stewart Grain Co Ltd,Canadian National Rys,30000,cgn_direct
Loverna,SASKATCHEWAN,51.65857,-109.9858,54,15,21,1913,1943,Security Elevator Co Ltd,Canadian National Rys,40000,cgn_direct
Rowatt,SASKATCHEWAN,50.33337,-104.61722,54,10,21,1913,1943,N M Paterson & Co Ltd,Canadian National Rys,45000,cgn_direct
Fleet,ALBERTA,52.15333,-111.73,54,10,19,1913,1941,North Star Grain Co Ltd,Canadian Pacific,40000,cgn_direct
Richdale,ALBERTA,51.61028,-111.60417,54,17,20,1913,1943,Home Grain Co Ltd,Canadian Northern Ry Co,105000,cgn_direct
Battrum,SASKATCHEWAN,50.55004,-108.33403,54,14,20,1913,1943,Ogilvie Flour Mills Co Ltd,Canadian Pacific,70000,cgn_direct
Marwayne,ALBERTA,53.5175,-110.33,54,14,9,1926,1943,Federal Grain Ltd,Canadian Pacific,40000,cgn_direct
Arden,MANITOBA,50.27722,-99.26972,53,10,23,1911,1943,Lake Of The Woods Milling Co Ltd,Canadian Pacific,50000,cgn_direct
Elva,MANITOBA,49.21611,-101.11528,53,7,23,1911,1943,Lake Of The Woods Milling Co Ltd,Canadian Pacific,35000,cgn_direct
Sinclair,MANITOBA,49.56917,-101.28778,53,8,21,1911,1943,Ogilvie Flour Mills Co Ltd,Canadian Pacific,50000,cgn_direct
Halbrite,SASKATCHEWAN,49.48818,-103.55917,53,11,22,1911,1943,Lake Of The Woods Milling Co Ltd,Canadian Pacific,35000,cgn_direct
Orcadia,SASKATCHEWAN,51.27561,-102.60914,53,14,23,1911,1943,Northern Elevator Co Ltd,Canadian Pacific,60000,cgn_direct
Rokeby,SASKATCHEWAN,51.13333,-102.33381,53,19,21,1911,1943,N Bawlf Grain Co Ltd,Canadian Pacific,60000,cgn_direct
Margaret,MANITOBA,49.40556,-99.85583,53,8,23,1911,1943,United Grain Growers Ltd,Canadian Northern Ry Co,40000,cgn_direct
Findlater,SASKATCHEWAN,50.78887,-105.40147,53,10,23,1911,1943,N M Paterson & Co Ltd,Canadian National Rys,30000,cgn_direct
Hearne,SASKATCHEWAN,50.10003,-105.13389,53,9,23,1911,1943,Reliance Grain Co Ltd,Canadian Northern Ry Co,50000,cgn_direct
Wordsworth,SASKATCHEWAN,49.54956,-102.36769,53,12,23,1911,1943,Western Canada Flour Mills Co Ltd,Canadian National Rys,55000,cgn_direct
Pierson,MANITOBA,49.18,-101.2625,53,8,20,1912,1943,Ogilvie Flour Mills Co Ltd,Canadian Pacific,50000,cgn_direct
Fairmount,SASKATCHEWAN,51.41672,-109.30075,53,16,22,1912,1943,Saskatchewan Pool Elevators Ltd,Canadian Northern Ry Co,40000,cgn_direct
Pambrum,SASKATCHEWAN,49.93539,-107.45712,53,13,15,1915,1930,Central Grain Co Ltd,Canadian Pacific,30000,agent_high
Ardill,SASKATCHEWAN,49.93923,-105.84199,53,15,18,1915,1943,Spencer Grain Co Ltd,Canadian National Rys,30000,cgn_direct
Marsden,SASKATCHEWAN,52.84149,-109.82384,53,9,11,1924,1943,Pioneer Grain Co Ltd,Canadian Pacific,37000,cgn_direct
Arrow River,MANITOBA,50.14389,-100.89333,52,13,23,1911,1943,Western Canada Flour Mills Co Ltd,Canadian Pacific,30000,cgn_direct
Starbuck,MANITOBA,49.77222,-97.61722,52,8,21,1911,1943,Ogilvie Flour Mills Co Ltd,Canadian Pacific,50000,cgn_direct
Blucher,SASKATCHEWAN,52.0167,-106.2006,52,11,23,1911,1943,Maple Leaf Milling Co Ltd,Canadian Pacific,45000,cgn_direct
Froude,SASKATCHEWAN,49.67301,-103.28091,52,10,23,1911,1943,North Star Grain Co Ltd,Canadian Pacific,35000,cgn_direct
Purple Springs,ALBERTA,49.81556,-111.8925,52,14,23,1911,1943,United Grain Growers Ltd,Canadian Pacific,35000,cgn_direct
Spring Coulee,ALBERTA,49.33444,-113.05167,52,14,18,1911,1943,Alberta Pacific Grain Co Ltd,Canadian Pacific,63000,cgn_direct
Sifton,MANITOBA,51.36028,-100.1425,52,7,23,1911,1943,United Grain Growers Ltd,Canadian National Rys,40000,cgn_direct
New Norway,ALBERTA,52.86889,-112.95111,52,10,22,1911,1943,Pioneer Grain Co Ltd,Canadian National Rys,80000,cgn_direct
Expanse,SASKATCHEWAN,49.98336,-105.85058,52,22,22,1912,1943,Saskatchewan Co-operative Elevator Co Ltd,Canadian Pacific,30000,cgn_direct
Woolford,ALBERTA,49.185,-113.16528,52,10,22,1912,1943,Alberta Pacific Grain Co Ltd,Canadian Pacific,70000,cgn_direct
Meeting Creek,ALBERTA,52.68194,-112.73167,52,10,22,1912,1943,Alberta Pacific Grain Co Ltd,Canadian National Rys,45000,cgn_direct
Southfork,SASKATCHEWAN,49.59373,-108.71935,52,9,17,1914,1943,Pioneer Grain Co Ltd,Canadian Pacific,30000,cgn_direct
Storthoaks,MANITOBA,49.38977,-101.5986,52,13,21,1913,1943,Saskatchewan Pool Elevators Ltd,Canadian Pacific,55000,cgn_direct
Anerley,SASKATCHEWAN,51.36671,-107.31732,52,10,21,1913,1943,Pioneer Grain Co Ltd,Canadian National Rys,36000,cgn_direct
Englefeld,SASKATCHEWAN,52.16204,-104.65534,52,14,18,1914,1943,British America Elevator Co Ltd,Canadian National Rys,35000,cgn_direct
Jenner,ALBERTA,50.74667,-111.18444,52,9,19,1915,1943,Alberta Pacific Grain Co Ltd,Canadian Pacific,35000,cgn_direct
Manyberries,ALBERTA,49.40056,-110.69472,52,9,18,1916,1943,United Grain Growers Ltd,Canadian Pacific,41000,cgn_direct
Climax,SASKATCHEWAN,49.20639,-108.38587,52,13,12,1923,1943,Alberta Pacific Grain Co Ltd,Canadian Pacific,35000,cgn_direct
Fannystelle,MANITOBA,49.74472,-97.77778,51,11,23,1911,1943,Canadian Elevator Co Ltd,Canadian Pacific,53000,cgn_direct
Neepawa,MANITOBA,50.22889,-99.46556,51,12,20,1911,1943,Ogilvie Flour Mills Co Ltd,Canadian Pacific,60000,cgn_direct
Erskine,ALBERTA,52.32111,-112.87972,51,7,23,1911,1943,Alberta Pacific Grain Co Ltd,Canadian Pacific,66000,cgn_direct
Whitla,ALBERTA,49.88111,-111.05333,51,14,22,1911,1943,Ogilvie Flour Mills Co Ltd,Canadian Pacific,41000,cgn_direct
Eden,MANITOBA,50.37639,-99.46944,51,11,22,1911,1943,United Grain Growers Ltd,Canadian National Rys,50000,cgn_direct
Letellier,MANITOBA,49.13583,-97.30306,51,9,22,1911,1943,United Grain Growers Ltd,Canadian National Rys,49000,cgn_direct
Naisberry,SASKATCHEWAN,52.86705,-104.47359,51,12,22,1911,1943,British America Elevator Co Ltd,Canadian National Rys,60000,cgn_direct
Tilney,SASKATCHEWAN,50.22728,-105.39353,51,12,21,1911,1943,Reliance Grain Co Ltd,Canadian National Rys,40000,cgn_direct
Willmar,SASKATCHEWAN,49.48655,-102.47093,51,12,23,1911,1943,Saskatchewan Elevator Co Ltd,Canadian National Rys,48000,cgn_direct
Birmingham,SASKATCHEWAN,50.96667,-102.93383,51,9,23,1911,1943,Security Elevator Co Ltd,Canadian National Rys,35000,cgn_direct
Duff,SASKATCHEWAN,50.87329,-103.09176,51,11,23,1911,1943,Security Elevator Co Ltd,Canadian National Rys,40000,cgn_direct
Edenwold,SASKATCHEWAN,50.63373,-104.25273,51,12,23,1911,1943,Saskatchewan Pool Elevators Ltd,Canadian National Rys,35000,cgn_direct
Broomhill,MANITOBA,49.39306,-101.0875,51,13,22,1912,1943,Ogilvie Flour Mills Co Ltd,Canadian Pacific,50000,cgn_direct
Alida,MANITOBA,49.38901,-101.87429,51,14,20,1913,1943,Dominion Elevator Co Ltd,Canadian Pacific,35000,cgn_direct
Westerham,SASKATCHEWAN,50.9145,-109.66232,51,9,21,1913,1943,Central Grain Co Ltd,Canadian Pacific,30000,cgn_direct
Carbon,ALBERTA,51.48583,-113.15056,51,8,13,1921,1943,Alberta Pacific Grain Co Ltd,Canadian Pacific,67800,cgn_direct
Duchess,ALBERTA,50.73111,-111.90639,51,11,19,1915,1943,Alberta Pacific Grain Co Ltd,Canadian Pacific,57000,cgn_direct
Watts,ALBERTA,51.66194,-112.09,51,9,19,1915,1943,National Elevator Co Ltd,Canadian National Rys,55000,cgn_direct
St. Paul de Metis,ALBERTA,53.99278,-111.29611,51,11,8,1920,1943,Alberta Pacific Grain Co Ltd,Canadian National Rys,52000,agent_medium
Rossburn,MANITOBA,50.66917,-100.81111,50,9,15,1911,1943,British America Elevator Co Ltd,Canadian National Rys,50000,cgn_direct
Disley,SASKATCHEWAN,50.64095,-105.04934,50,12,23,1911,1943,N M Paterson & Co Ltd,Canadian National Rys,35000,cgn_direct
Lampman,SASKATCHEWAN,49.38277,-102.75783,50,13,22,1911,1943,Saskatchewan Pool Elevators Ltd,Canadian National Rys,35000,cgn_direct
Grandora,SASKATCHEWAN,52.11037,-106.99078,50,9,23,1911,1943,Standard Elevator Co Ltd,Canadian National Rys,35000,cgn_direct
Brookdale,MANITOBA,50.04806,-99.56361,50,10,22,1912,1943,Lake Of The Woods Milling Co Ltd,Canadian Pacific,45000,cgn_direct
Purves,MANITOBA,49.12528,-98.7325,50,8,19,1912,1943,Canadian Elevator Co Ltd,Canadian Pacific,50000,cgn_direct
Cloan,SASKATCHEWAN,52.608,-108.77646,50,8,22,1912,1943,Federal Grain Co Ltd,Canadian Pacific,35000,cgn_direct
Colgate,SASKATCHEWAN,49.39447,-103.89497,50,13,22,1912,1943,North Star Grain Co Ltd,Canadian National Rys,35000,cgn_direct
Hardy,SASKATCHEWAN,49.48109,-104.71893,50,11,22,1912,1943,Saskatchewan Pool Elevators Ltd,Canadian National Rys,32000,cgn_direct
Osler,SASKATCHEWAN,52.36683,-106.53221,50,12,22,1912,1943,Pioneer Grain Co Ltd,Canadian National Rys,50000,cgn_direct
Vawn,SASKATCHEWAN,53.10656,-108.66693,50,14,22,1912,1943,British America Elevator Co Ltd,Canadian National Rys,50000,cgn_direct
Crichton,SASKATCHEWAN,49.729,-107.87936,50,8,18,1915,1943,Pioneer Grain Co Ltd,Canadian Pacific,30000,cgn_direct
Brancepeth,SASKATCHEWAN,53.00182,-105.26896,50,13,14,1919,1943,Searle Grain Co Ltd,Canadian National Rys,54000,cgn_direct
MacNutt,MANITOBA,51.08426,-101.60359,50,14,17,1915,1943,N Bawlf Grain Co Ltd,Canadian National Rys,125000,cgn_direct
Pinkham,SASKATCHEWAN,51.42805,-109.45659,50,14,21,1913,1943,Saskatchewan Pool Elevators Ltd,Canadian National Rys,40000,cgn_direct
Clyde,ALBERTA,54.15194,-113.63583,50,7,17,1917,1943,United Grain Growers Ltd,Canadian National Rys,45000,cgn_direct
Blumenhof,SASKATCHEWAN,50.0167,-107.70067,50,9,10,1925,1943,Alberta Pacific Grain Co Ltd,Canadian Pacific,35000,cgn_direct
Austin,MANITOBA,49.95028,-98.93611,49,9,23,1911,1943,Clifford & Booth,Canadian Pacific,40000,cgn_direct
Ralph,SASKATCHEWAN,49.57473,-103.68962,49,11,23,1911,1943,C D Pals,Canadian Pacific,35000,cgn_direct
Cheadle,ALBERTA,51.01444,-113.54056,49,10,21,1911,1943,Alberta Pacific Grain Co Ltd,Canadian Pacific,74000,cgn_direct
Lethbridge,ALBERTA,49.69361,-112.84194,49,12,22,1911,1943,Ellison Milling & Elevator Co Ltd,Canadian Pacific,80000,cgn_direct
Cardale,MANITOBA,50.23667,-100.32111,49,12,22,1911,1943,N Bawlf Grain Co Ltd,Canadian National Rys,60000,cgn_direct
Durban,MANITOBA,51.92917,-101.44056,49,10,22,1911,1943,British America Elevator Co Ltd,Canadian National Rys,38000,cgn_direct
Makinak,MANITOBA,50.98278,-99.66472,49,6,23,1911,1943,C L Vickery,Canadian National Rys,25000,cgn_direct
St. Jean,MANITOBA,49.26556,-97.33972,49,9,23,1911,1943,N M Paterson & Co Ltd,Canadian National Rys,35000,agent_high
Bulyea,SASKATCHEWAN,50.98648,-104.86818,49,8,22,1912,1943,Ogilvie Flour Mills Co Ltd,Canadian Pacific,40000,cgn_direct
Craven,SASKATCHEWAN,50.70816,-104.8095,49,14,22,1912,1943,Parrish & Heimbecker Ltd,Canadian Pacific,37000,cgn_direct
Clair,SASKATCHEWAN,52.0174,-104.07238,49,11,22,1912,1943,Saskatchewan Elevator Co Ltd,Canadian National Rys,35000,cgn_direct
Regent,MANITOBA,49.34083,-100.31194,49,9,19,1913,1943,Lake Of The Woods Milling Co Ltd,Canadian Pacific,40000,cgn_direct
Leroy,SASKATCHEWAN,52.00291,-104.73882,49,8,13,1921,1943,Saskatchewan Pool Elevators Ltd,Canadian Pacific,32000,cgn_direct
Laporte,SASKATCHEWAN,51.21455,-109.51039,49,9,15,1919,1943,Saskatchewan Pool Elevators Ltd,Canadian National Rys,35000,cgn_direct
Turtleford,SASKATCHEWAN,53.38788,-108.95938,49,12,20,1914,1943,North Star Grain Co Ltd,Canadian National Rys,70000,cgn_direct
Peterson,SASKATCHEWAN,52.19035,-105.69353,49,13,18,1916,1943,Saskatchewan Pool Elevators Ltd,Canadian National Rys,30000,cgn_direct
Smiley,SASKATCHEWAN,51.63417,-109.47048,49,20,19,1913,1943,Saskatchewan Pool Elevators Ltd,Canadian National Rys,35000,cgn_direct
Benalto,ALBERTA,52.30778,-114.27833,49,7,15,1919,1943,Alberta Pacific Grain Co Ltd,Canadian Pacific,42000,cgn_direct
Lanfine,ALBERTA,51.38111,-110.68917,49,12,17,1916,1943,National Elevator Co Ltd,Canadian National Rys,52500,cgn_direct
Lac Vert,SASKATCHEWAN,52.50001,-104.48384,49,9,12,1923,1943,Alberta Pacific Grain Co Ltd,Canadian Pacific,30000,cgn_direct
Ranfurly,ALBERTA,53.40722,-111.67972,49,10,16,1915,1943,United Grain Growers Ltd,Canadian National Rys,73000,cgn_direct
Neidpath,SASKATCHEWAN,50.22431,-107.24658,49,8,11,1924,1943,Pioneer Grain Co Ltd,Canadian National Rys,35000,cgn_direct
Gouverneur,SASKATCHEWAN,49.7605,-107.62413,49,13,14,1914,1943,Saskatchewan Pool Elevators Ltd,Canadian Pacific,35000,cgn_direct
Stony Plain,ALBERTA,53.52639,-114.00694,49,11,10,1925,1943,Alberta Pacific Grain Co Ltd,Canadian National Rys,75000,cgn_direct
Strasbourg,SASKATCHEWAN,51.07028,-104.9555,49,10,8,1927,1943,Ogilvie Flour Mills Co Ltd,Canadian Pacific,64000,cgn_direct
Willingdon,ALBERTA,53.82861,-112.11806,49,11,8,1927,1943,United Grain Growers Ltd,Canadian Pacific,41000,cgn_direct
Harding,MANITOBA,49.99028,-100.5325,48,11,23,1911,1943,Western Canada Flour Mills Co Ltd,Canadian Pacific,30000,cgn_direct
Tilston,MANITOBA,49.39361,-101.31278,48,7,19,1911,1943,Ogilvie Flour Mills Co Ltd,Canadian Pacific,50000,cgn_direct
Burdette,ALBERTA,49.83222,-111.52194,48,14,15,1911,1926,Alberta Pacific Grain Co Ltd,Canadian Pacific,35000,agent_high
Barnwell,ALBERTA,49.76056,-112.26333,48,6,22,1912,1943,United Grain Growers Ltd,Canadian Pacific,50000,cgn_direct
Rosalind,ALBERTA,52.78972,-112.44389,48,12,17,1915,1943,United Grain Growers Ltd,Canadian National Rys,65000,cgn_direct
Rowley,ALBERTA,51.76222,-112.78833,48,10,18,1915,1943,Home Grain Co Ltd,Canadian National Rys,77800,cgn_direct
Kyle,SASKATCHEWAN,50.83059,-108.03886,48,10,12,1923,1943,Lake Of The Woods Milling Co Ltd,Canadian Pacific,40000,cgn_direct
Neilburg,SASKATCHEWAN,52.8394,-109.62763,48,7,11,1924,1943,Pioneer Grain Co Ltd,Canadian Pacific,35000,cgn_direct
Hairy Hill,ALBERTA,53.76333,-111.97861,48,10,7,1928,1943,United Grain Growers Ltd,Canadian Pacific,41000,cgn_direct
Boharm,SASKATCHEWAN,50.39684,-105.71798,47,12,23,1911,1943,Canadian Elevator Co Ltd,Canadian Pacific,60000,cgn_direct
Broadview,SASKATCHEWAN,50.37497,-102.57726,47,9,23,1911,1943,Ogilvie Flour Mills Co Ltd,Canadian Pacific,30000,cgn_direct
Kennedy,SASKATCHEWAN,50.01072,-102.35079,47,10,23,1911,1943,Northern Elevator Co Ltd,Canadian Pacific,45000,cgn_direct
Red Deer,ALBERTA,52.26861,-113.81028,47,22,22,1911,1943,Alberta Pacific Grain Co Ltd,Canadian Pacific,75000,cgn_direct
Margo,SASKATCHEWAN,51.82547,-103.3361,47,9,22,1911,1943,Pioneer Grain Co Ltd,Canadian National Rys,35000,cgn_direct
Tiny,SASKATCHEWAN,51.67099,-102.59728,47,9,22,1911,1943,N Bawlf Grain Co Ltd,Canadian National Rys,45000,cgn_direct
Verigin,SASKATCHEWAN,51.58332,-102.0838,47,22,10,1911,1943,Doukhobor Society,Canadian National Rys,80000,cgn_direct
Atwater,SASKATCHEWAN,50.77581,-102.22691,47,9,23,1911,1943,Security Elevator Co Ltd,Canadian National Rys,32000,cgn_direct
Hubbard,SASKATCHEWAN,51.12841,-103.37271,47,10,23,1911,1943,Northern Elevator Co Ltd,Canadian National Rys,31000,cgn_direct
Juniata,SASKATCHEWAN,52.08338,-107.33398,47,13,22,1911,1943,Security Elevator Co Ltd,Canadian National Rys,30000,cgn_direct
Bradwardine,MANITOBA,49.99556,-100.46361,47,15,19,1912,1943,Northern Elevator Co Ltd,Canadian Pacific,40000,cgn_direct
Fiske,SASKATCHEWAN,51.48653,-108.40407,47,14,22,1912,1943,Pioneer Grain Co Ltd,Canadian National Rys,30000,cgn_direct
Bateman,SASKATCHEWAN,50.0099,-106.74986,47,13,14,1920,1943,Alberta Pacific Grain Co Ltd,Canadian National Rys,35000,cgn_direct
Mervin,SASKATCHEWAN,53.33346,-108.87401,47,13,19,1914,1943,Saskatchewan Pool Elevators Ltd,Canadian National Rys,55000,cgn_direct
Wilson,ALBERTA,49.60056,-112.64806,47,9,20,1914,1943,Ogilvie Flour Mills Co Ltd,Canadian Pacific,104000,cgn_direct
Hilliard,ALBERTA,53.64,-112.48194,47,10,16,1917,1943,Alberta Pacific Grain Co Ltd,Canadian National Rys,66000,cgn_direct
Grainger,ALBERTA,51.49167,-113.3325,47,10,19,1914,1943,Alberta Pacific Grain Co Ltd,Canadian National Rys,35000,cgn_direct
Shouldice,ALBERTA,50.71667,-112.97389,47,9,10,1925,1943,United Grain Growers Ltd,Canadian Pacific,61000,cgn_direct
Lake Lenore,SASKATCHEWAN,52.39586,-104.98533,47,9,8,1927,1943,Saskatchewan Pool Elevators Ltd,Canadian National Rys,59000,cgn_direct
Fairview,ALBERTA,56.06722,-118.38417,47,12,7,1928,1943,Midland & Pacific Grain Corp Ltd,Canadian Northern Alberta Ry Co,81000,cgn_direct
Sutherland,SASKATCHEWAN,52.13893,-106.60339,46,8,22,1911,1943,Western Elevator Co Ltd,Canadian Pacific,35000,cgn_direct
Silton,SASKATCHEWAN,50.80647,-104.91098,46,9,22,1911,1943,Western Elevator Co Ltd,Canadian Pacific,35000,cgn_direct
Brooks,ALBERTA,50.56722,-111.895,46,11,23,1911,1943,Alberta Pacific Grain Co Ltd,Canadian Pacific,82000,cgn_direct
Brunkild,MANITOBA,49.59278,-97.57444,46,10,18,1911,1943,United Grain Growers Ltd,Canadian National Rys,40000,cgn_direct
Hilton,MANITOBA,49.50611,-99.525,46,7,23,1911,1943,United Grain Growers Ltd,Canadian National Rys,32000,cgn_direct
Isabella,MANITOBA,50.26694,-100.87333,46,6,23,1911,1943,United Grain Growers Ltd,Canadian National Rys,30000,cgn_direct
Kelwood,MANITOBA,50.62472,-99.46167,46,7,22,1911,1943,United Grain Growers Ltd,Canadian National Rys,35000,cgn_direct
Lavinia,MANITOBA,50.27444,-100.66806,46,6,23,1911,1943,United Grain Growers Ltd,Canadian National Rys,30000,cgn_direct
Davin,SASKATCHEWAN,50.38261,-104.10997,46,8,23,1911,1943,Saskatchewan Pool Elevators Ltd,Canadian National Rys,30000,cgn_direct
Scott,SASKATCHEWAN,52.36558,-108.82786,46,16,22,1911,1943,Security Elevator Co Ltd,Grand Trunk Pacific Ry Co,30000,cgn_direct
Hitchcock,SASKATCHEWAN,49.22781,-103.12214,46,6,22,1912,1943,Western Elevator Co Ltd,Canadian Pacific,35000,cgn_direct
Sidewood,SASKATCHEWAN,50.05003,-108.90072,46,8,20,1914,1943,North Star Grain Co Ltd,Canadian Pacific,40000,cgn_direct
Mitchellton,SASKATCHEWAN,49.93336,-105.70057,46,12,17,1916,1943,North Star Grain Co Ltd,Canadian National Rys,35000,cgn_direct
Tonkin,SASKATCHEWAN,51.21031,-102.26376,46,10,19,1915,1943,N Bawlf Grain Co Ltd,Canadian National Rys,55000,cgn_direct
Orion,ALBERTA,49.45333,-110.81056,46,8,17,1916,1943,Alberta Pacific Grain Co Ltd,Canadian Pacific,30000,cgn_direct
Tudor,ALBERTA,51.17611,-113.14611,46,10,19,1914,1943,Alberta Pacific Grain Co Ltd,Canadian Pacific,73000,cgn_direct
